X,Y,ObjectId,stop_id,stop_name,latitude,longitude,zone_id,location_type,parent_station,wheelchair_boarding,platform_code,GlobalID
16.615558,49.1832920000001,1,U7530Z2,Dolní nádraží,49.183292,16.615558,100,0,U7530N1,2\,,{3298DB20-D9B0-49AC-9704-FC70E0918F17}
16.617622,49.1864170000001,2,U1011Z2,Autobusové nádraží,49.186417,16.617622,100,0,U1011N2,2\,,{68F78079-AC24-41C9-9D03-912BB6BDCD1C}
17.116435,48.870733,3,U19012Z1,"Hodonín, STS",48.870733,17.116435,900,0,U19012N147,2\,,{8E763C9C-41A7-406B-B129-1F9CE1BBF764}
16.613617,49.19185,4,U1146Z33,Hlavní nádraží,49.19185,16.613617,100,0,U1146N3,2\,13,{514F47CE-9E97-4AC5-9B85-D3DBE56AD2D0}
16.6139910000001,49.1918150000001,5,U1146Z31,Hlavní nádraží,49.191815,16.613991,100,0,U1146N3,2\,10,{D42FD377-8FF2-416D-8E7A-9380359F0B36}
17.1187580000001,48.8624760000001,6,U19002Z1,"Hodonín, Brněnská",48.862476,17.118758,900,0,U19002N146,2\,,{C3A4F5C0-26D6-4661-90E7-DAA437F04CD5}
16.6152010000001,49.1831490000001,7,U7530Z1,Dolní nádraží,49.183149,16.615201,100,0,U7530N1,2\,,{C3C24FC4-E19B-4C63-9277-177E54B67548}
16.380187,48.7512850000001,8,U15775Z2,"Hevlín, škola",48.751285,16.380187,570,0,U15775N4,2\,,{9FD43094-867D-487F-8B9A-21B37775B978}
16.6161510000001,49.185364,9,U1696Z12,ÚAN Zvonařka,49.185364,16.616151,100,0,U1696N32,2\,26,{A7845A23-F4B6-4668-B525-97FEAC5257C7}
16.8675180000001,48.995079,10,U16348Z1,"Klobouky u Brna, samoobsluha",48.995079,16.867518,640,0,U16348N160,2\,,{809A9BE4-3411-4A2F-9DDA-085E2CEBD7F0}
16.3834600000001,48.7613870000001,11,U15773Z2,"Hevlín, cihelna",48.761387,16.38346,570,0,U15773N5,2\,,{E6CABBF5-A676-4D14-AFBD-8D0C7482D76D}
16.8793390000001,48.9944110000001,12,U16343Z1,"Klobouky u Brna, Nádražní",48.994411,16.879339,640,0,U16343N159,2\,,{103B893D-08C9-42F8-9432-42B948DF4477}
16.395222,48.796862,13,U15627Z2,Hrabětice,48.796862,16.395222,560,0,U15627N6,2\,,{039A707E-1130-413F-82E1-7C40FDF2C3EE}
16.6175670000001,49.1854750000001,14,U1696Z15,ÚAN Zvonařka,49.185475,16.617567,100,0,U1696N32,2\,4,{1AA37E19-CCD9-41C6-AF2E-829488B0CDE1}
16.8730390000001,49.2000120000001,15,U17337Z1,"Rousínov, rozc. k žel. st.",49.200012,16.873039,730,0,U17337N230,2\,,{D88B74C1-1C09-4519-8FB4-05C172081F72}
16.386832,48.7992350000001,16,U15640Z2,"Šanov, u mostu",48.799235,16.386832,560,0,U15640N7,2\,,{0666DDCD-50A7-4F87-88CD-C85E88FE5237}
16.619609,49.1827400000001,17,U1807Z1,Železniční,49.18274,16.619609,100,0,U1807N314,2\,,{978CC180-07E1-47F1-931F-921AB1A4CC83}
16.373927,48.8021430000001,18,U15639Z2,"Šanov, požární zbrojnice",48.802143,16.373927,560,0,U15639N8,2\,,{44C4E7A4-F929-4A8E-BE8B-662B70796FFE}
16.38336,48.8104650000001,19,U15637Z2,"Hrušovany nad Jevišovkou, žel. st.",48.810465,16.38336,560,0,U15637N9,2\,,{32FD8616-515E-46C3-AF70-E44CD53C42E4}
16.625975,49.1698240000001,20,U1148Z1,Hněvkovského,49.169824,16.625975,101,0,U1148N315,1\,,{44FD8639-539A-4184-9298-718742D1BBDC}
16.88534,49.2029470000001,21,U17335Z1,"Rousínov, autobusová stanice",49.202947,16.88534,730,0,U17335N211,2\,8,{19297728-9577-447D-9F8B-2B485F9B39F1}
16.39406,48.8112550000001,22,U15628Z2,"Hrabětice, rozcestí",48.811255,16.39406,560,0,U15628N10,2\,,{EF34A839-5D0F-4DDD-A95C-2B639901160B}
16.6467870000001,49.1565420000001,23,U1511Z1,Popelova,49.156542,16.646787,101,0,U1511N316,2\,,{EBF99781-3687-4C3A-BD49-D069DE7254AD}
16.99145,49.275878,24,U17423Z2,"Vyškov, Autobusové nádraží",49.275878,16.99145,740,0,U17423N203,2\,2,{213D3EFC-26FC-4947-AF1F-0F97A7A1C49A}
16.397767,48.8174020000001,25,U15634Z2,"Hrušovany nad Jevišovkou, statek",48.817402,16.397767,560,0,U15634N11,2\,,{17947F64-E042-4F40-9BD4-CEFE85FF444A}
16.659518,49.1510740000001,26,U1118Z1,Glocova,49.151074,16.659518,101,0,U1118N317,2\,,{AFBF04D1-50BD-4E74-8784-417328C66443}
16.9922020000001,49.2781150000001,27,U17446Z1,"Vyškov, železniční stanice",49.278115,16.992202,740,0,U17446N231,2\,,{BDC96F7B-B902-4E9A-9316-46C7A9DE1BC6}
16.3994940000001,48.829121,28,U15631Z2,"Hrušovany nad Jevišovkou, lékárna",48.829121,16.399494,560,0,U15631N12,2\,,{0DADBE8F-D4C5-4188-9B17-0C3487266A04}
16.663085,49.1494260000001,29,U1538Z1,Revoluční,49.149426,16.663085,101,0,U1538N318,2\,,{AC4F949E-2571-4B69-8CEE-882BBC216D1A}
16.995232,49.2803650000001,30,U17427Z1,"Vyškov, Dělnický dům",49.280365,16.995232,740,0,U17427N232,2\,,{03885136-6B97-413C-BF0E-656F0DBEEC82}
16.4019280000001,48.8314720000001,31,U15632Z1,"Hrušovany nad Jevišovkou, Lidická, VÚPP",48.831472,16.401928,560,0,U15632N13,2\,,{036CEC60-2C04-409A-8048-DEA0F3C48F08}
16.6675090000001,49.1469540000001,32,U1131Z1,Hanácká,49.146954,16.667509,101,0,U1131N172,2\,,{8571D37F-A28E-4F86-924A-60B0186A2BC1}
16.9906120000001,49.283558,33,U17440Z1,"Vyškov, Rostex",49.283558,16.990612,740,0,U17440N233,2\,,{A3B913E7-8ABD-4C76-9D23-C15C229C9654}
16.4038330000001,48.842858,34,U15635Z2,"Hrušovany nad Jevišovkou, STS",48.842858,16.403833,560,0,U15635N14,2\,,{EDC8F4A7-D890-42EF-9094-7B415F400554}
16.66513,49.144276,35,U1186Z1,Chrlická,49.144276,16.66513,101,0,U1186N319,1\,,{9E6A08BD-69A2-4005-883F-6BEB9452F6A9}
16.986955,49.28524,36,U17431Z1,"Vyškov, hotel Dukla",49.28524,16.986955,740,0,U17431N234,2\,,{C4735F45-716A-4E69-95A9-11C90B7494A5}
16.4009550000001,48.8835770000001,37,U15553Z2,"Litobratřice, u konírny",48.883577,16.400955,550,0,U15553N15,2\,,{49D64209-8956-4A59-BAB3-13862D137BE7}
16.6844570000001,49.1313720000001,38,U1592Z3,Sokolnická,49.131372,16.684457,101,0,U1592N320,2\,,{A9787E2C-E205-4EC2-8A5B-63B1BBC54447}
16.981548,49.28952,39,U17426Z1,"Vyškov, Dědice, u hřbitova",49.28952,16.981548,740,0,U17426N235,2\,,{9BC01131-E3AC-4355-B363-5B6D2A661754}
16.4033020000001,48.8878750000001,40,U15554Z2,"Litobratřice, obecní úřad",48.887875,16.403302,550,0,U15554N16,2\,,{860B60BD-BA31-436B-80ED-44DA8A06895A}
16.714345,49.1141910000001,41,U16173Z1,"Sokolnice, Brněnská",49.114191,16.714345,610,0,U16173N321,2\,,{F2CFFF14-DAC4-43E0-AE6A-224D0564509F}
16.9790150000001,49.2941700000001,42,U17424Z1,"Vyškov, Dědice, nám. Svobody",49.29417,16.979015,740,0,U17424N236,2\,,{F0EFEB0F-7FE8-410B-9802-C00CDA5A710D}
16.39138,48.9206970000001,43,U15552Z2,Jiřice u Miroslavi,48.920697,16.39138,550,0,U15552N17,2\,,{CF127D20-5927-4CAD-AF6B-35740B456246}
16.7220540000001,49.1138550000001,44,U16145Z1,"Sokolnice, obecní úřad",49.113855,16.722054,610,0,U16145N322,2\,,{E08E2CF4-C913-44A0-AFF3-37D12FC57DD0}
16.9815100000001,49.3009430000001,45,U17445Z1,"Vyškov, Dědice, kasárna",49.300943,16.98151,740,0,U17445N237,2\,,{D7B5AC9C-C765-446A-ABCD-49FA8C731BE0}
16.432717,48.9186250000001,46,U15430Z2,"Troskotovice, prodejna",48.918625,16.432717,540,0,U15430N18,2\,,{C235D12C-8125-431E-A844-1062C8450FB1}
16.7328410000001,49.108393,47,U16149Z1,"Sokolnice, železniční stanice",49.108393,16.732841,610,0,U16149N323,2\,1,{D88E9C2B-D19A-47AA-A86D-10E312520A41}
16.4367950000001,48.918848,48,U15431Z2,"Troskotovice, škola",48.918848,16.436795,540,0,U15431N19,2\,,{E2E3963A-96F5-4ABD-A227-A773F1929A6B}
16.9733130000001,49.29812,49,U17425Z1,"Vyškov, Dědice, rozc. Opatovice",49.29812,16.973313,740,0,U17425N238,2\,,{EE689F11-A73B-4692-8E6E-38195D546284}
16.749987,49.106258,50,U16157Z1,"Újezd u Brna, Revoluční",49.106258,16.749987,610,0,U16157N324,2\,,{48720092-A078-40B0-9FA1-B3AEF20B5870}
16.969203,49.3053320000001,51,U17430Z1,"Vyškov, Hamiltony",49.305332,16.969203,740,0,U17430N239,2\,,{136996A1-6069-4E15-BC0C-04764E65C567}
16.955875,49.3097750000001,52,U17433Z1,"Vyškov, Lhota, u školy",49.309775,16.955875,740,0,U17433N240,2\,,{92877994-EB5C-418C-A61A-DBE54BAF3462}
16.9488270000001,49.311585,53,U17432Z1,"Vyškov, Lhota",49.311585,16.948827,740,0,U17432N241,2\,,{D0AF280D-421D-4F30-B871-5D8B077B663D}
16.9352950000001,49.320457,54,U17439Z1,"Vyškov, Pařezovice, rozcestí",49.320457,16.935295,740,0,U17439N242,2\,,{D4CD44AA-19AF-4D5E-98B9-2AE1A8739513}
16.919003,49.3271970000001,55,U17441Z1,"Vyškov, Rychtářov",49.327197,16.919003,740,0,U17441N243,2\,,{3FBB24CD-4190-4175-8D1A-57890BCC1747}
16.9125080000001,49.3303240000001,56,U17443Z1,"Vyškov, Rychtářov, točna",49.330324,16.912508,740,0,U17443N244,2\,,{2AC3D611-D602-46B3-9931-FB329B07E311}
16.9125080000001,49.3303240000001,57,U17443Z2,"Vyškov, Rychtářov, točna",49.330324,16.912508,740,0,U17443N244,2\,,{8104DFF2-0536-4C38-8DA6-EA4A9657E316}
16.919003,49.3271970000001,58,U17441Z2,"Vyškov, Rychtářov",49.327197,16.919003,740,0,U17441N243,2\,,{9D16576B-10A5-4867-BD30-8CCBB2D2FA3D}
16.93506,49.3204830000001,59,U17439Z2,"Vyškov, Pařezovice, rozcestí",49.320483,16.93506,740,0,U17439N242,2\,,{CAE96F47-C9F6-4617-B5B8-C554791D86AA}
16.948407,49.311497,60,U17432Z2,"Vyškov, Lhota",49.311497,16.948407,740,0,U17432N241,2\,,{7BAF701D-5D87-4115-8C97-B8E1B12E4E70}
16.956648,49.3095470000001,61,U17433Z2,"Vyškov, Lhota, u školy",49.309547,16.956648,740,0,U17433N240,2\,,{27831DED-4F7C-4DFD-A2C1-97CCA45F7EED}
16.969123,49.3053150000001,62,U17430Z2,"Vyškov, Hamiltony",49.305315,16.969123,740,0,U17430N239,2\,,{41CF3FB0-53D4-4D76-8DBF-8E908DA720E4}
16.9732450000001,49.2980630000001,63,U17425Z2,"Vyškov, Dědice, rozc. Opatovice",49.298063,16.973245,740,0,U17425N238,2\,,{F70C8150-767D-402F-8FC2-BBEE4E1F5CA0}
16.9791700000001,49.2936270000001,64,U17424Z2,"Vyškov, Dědice, nám. Svobody",49.293627,16.97917,740,0,U17424N236,2\,,{972C12EA-85A3-4CDB-AB7E-A51463C93818}
16.9818070000001,49.2889970000001,65,U17426Z2,"Vyškov, Dědice, u hřbitova",49.288997,16.981807,740,0,U17426N235,2\,,{0C75AA88-C6C2-440C-9263-986D6BC33F29}
16.9869580000001,49.2852370000001,66,U17431Z2,"Vyškov, hotel Dukla",49.285237,16.986958,740,0,U17431N234,2\,,{06D216E6-947A-4F23-9195-6814503FC5FE}
16.99069,49.283392,67,U17440Z2,"Vyškov, Rostex",49.283392,16.99069,740,0,U17440N233,2\,,{ECD9049B-DC96-4A11-8D76-22B9591300EC}
16.994993,49.2804870000001,68,U17427Z2,"Vyškov, Dělnický dům",49.280487,16.994993,740,0,U17427N232,2\,,{1680E095-791E-4A3D-9716-6067F3343851}
16.9922070000001,49.2781120000001,69,U17446Z2,"Vyškov, železniční stanice",49.278112,16.992207,740,0,U17446N231,2\,,{49C3412A-30F9-4193-A4BC-2FDA1052A267}
16.910468,49.3317230000001,70,U17442Z1,"Vyškov, Rychtářov, Rohlina",49.331723,16.910468,740,0,U17442N245,2\,,{CBF2A944-2E8D-4948-895E-374F5405EB5E}
16.887012,49.3590830000001,71,U17447Z1,"Studnice, Doubrava",49.359083,16.887012,745,0,U17447N246,2\,,{B5275BE6-FCC7-476F-8B42-8387A2D42A98}
16.879715,49.375665,72,U12412Z1,Studnice,49.375665,16.879715,240,0,U12412N247,2\,,{01A5A028-276A-449C-A605-39395155FFF7}
16.8821330000001,49.394393,73,U12413Z1,"Studnice, Odrůvky",49.394393,16.882133,240,0,U12413N248,2\,,{77035D49-A3A8-47A6-8D22-C85FD73B63FA}
16.9019030000001,49.4089050000001,74,U12405Z1,Nové Sady,49.408905,16.901903,240,0,U12405N249,2\,,{AAA158C1-A539-4C57-81A6-504AA0DD6466}
16.9019030000001,49.4089050000001,75,U12405Z2,Nové Sady,49.408905,16.901903,240,0,U12405N249,2\,,{53F1A22C-E50C-42FD-B056-82AC06532E91}
16.8820650000001,49.3943800000001,76,U12413Z2,"Studnice, Odrůvky",49.39438,16.882065,240,0,U12413N248,2\,,{829B47E9-BD64-476F-88CB-88F8EED05114}
16.879715,49.375665,77,U12412Z2,Studnice,49.375665,16.879715,240,0,U12412N247,2\,,{B7244C78-E9F4-4872-92BA-A2165F311B46}
16.887005,49.3590830000001,78,U17447Z2,"Studnice, Doubrava",49.359083,16.887005,745,0,U17447N246,2\,,{B92FA4A0-81A1-456E-8288-AF4EFD5C13C9}
16.957503,49.300165,79,U17438Z1,"Vyškov, Opatovice, u mlýna",49.300165,16.957503,740,0,U17438N250,2\,,{4D6420DB-6E65-4689-8221-2564C38C1972}
16.9543620000001,49.3022520000001,80,U17437Z1,"Vyškov, Opatovice, náves",49.302252,16.954362,740,0,U17437N251,2\,,{C175E723-5838-4157-B0E6-B714C4BA46E5}
16.9585720000001,49.300683,81,U17436Z1,"Vyškov, Opatovice, bytovky",49.300683,16.958572,740,0,U17436N252,2\,,{870CFFAF-DDF7-4650-8501-45C9C10E3DC0}
16.991653,49.275723,82,U17423Z14,"Vyškov, Autobusové nádraží",49.275723,16.991653,740,0,U17423N203,2\,7,{5790F17A-F59E-4B2F-BCE6-F72E8E52AB79}
16.885139,49.203115,83,U17335Z4,"Rousínov, autobusová stanice",49.203115,16.885139,730,0,U17335N211,2\,4,{779DD8B7-D613-4319-BA8B-EB695ABE9DA1}
16.8703350000001,49.1989750000001,84,U17337Z2,"Rousínov, rozc. k žel. st.",49.198975,16.870335,730,0,U17337N230,2\,,{DF7C7BD3-C0EC-4601-9CAD-9D9AC0E56230}
16.8472770000001,49.179512,85,U17346Z2,"Velešovice, obecní úřad",49.179512,16.847277,730,0,U17346N253,2\,,{3E4DA7D6-50BA-431E-A942-6166F61D18C6}
16.846278,49.1752730000001,86,U17347Z2,"Velešovice, u hřiště",49.175273,16.846278,730,0,U17347N254,2\,,{39DF3524-7011-44C9-BC5E-41835C1C41EF}
16.87922,49.1562280000001,87,U16331Z1,"Slavkov u Brna, poliklinika",49.156228,16.87922,635,0,U16331N255,2\,,{5EF6819D-2C9D-4CF6-8213-E483D77BE39E}
16.8761450000001,49.148898,88,U16328Z8,"Slavkov u Brna, aut. st.",49.148898,16.876145,635,0,U16328N124,2\,8,{BBCB7DA9-8A71-4464-89CF-8C6A4A8903BE}
16.8761450000001,49.148898,89,U16328Z10,"Slavkov u Brna, aut. st.",49.148898,16.876145,635,0,U16328N124,2\,6,{C160BA98-D5FD-45E0-904C-EBB9461E1A4A}
16.8467380000001,49.1758960000001,90,U17347Z1,"Velešovice, u hřiště",49.175896,16.846738,730,0,U17347N254,2\,,{E7338170-F212-4E3B-BD3C-A4A6CDFFF282}
16.8473480000001,49.1795720000001,91,U17346Z1,"Velešovice, obecní úřad",49.179572,16.847348,730,0,U17346N253,2\,,{EC1CE499-B258-44BC-8D23-521A4869550A}
16.8850150000001,49.203043,92,U17335Z9,"Rousínov, autobusová stanice",49.203043,16.885015,730,0,U17335N211,2\,6,{7CE9F681-CE70-456C-80B3-86E9F1C932D2}
16.8738300000001,49.1447470000001,93,U16333Z1,"Slavkov u Brna, žel. st.",49.144747,16.87383,635,0,U16333N256,2\,,{2B7C248C-A1A9-4FB4-8425-E852D8E5133D}
16.898418,49.1075530000001,94,U16324Z2,"Nížkovice, u hřiště",49.107553,16.898418,635,0,U16324N257,2\,,{A26B4A6F-EEC6-48AC-BD38-54F929DC40CB}
16.888722,49.09734,95,U16312Z2,"Kobeřice, na kopci",49.09734,16.888722,635,0,U16312N258,2\,,{860D3402-D921-4FAC-B854-BD54E1AA2A17}
16.441158,48.9220020000001,96,U15429Z2,"Troskotovice, hřbitov",48.922002,16.441158,540,0,U15429N20,2\,,{09922AF4-A008-4E31-A8F2-78AC4BCFFE31}
17.0090440000001,49.012481,97,U16534Z2,Želetice,49.012481,17.009044,662,0,U16534N112,2\,,{D3134AB9-C174-4464-BDC3-F84D3E66D099}
16.88588,49.0917230000001,98,U16313Z2,"Kobeřice, pohostinství",49.091723,16.88588,635,0,U16313N259,2\,,{56879A36-1EC7-4C3E-A8C2-63BA98BB39FE}
16.88588,49.0917230000001,99,U16313Z1,"Kobeřice, pohostinství",49.091723,16.88588,635,0,U16313N259,2\,,{0FF2DA5C-55B8-4E32-920E-A1DC0FAD8D8B}
16.888722,49.09734,100,U16312Z1,"Kobeřice, na kopci",49.09734,16.888722,635,0,U16312N258,2\,,{11D00938-C7E7-40F2-8B7F-4E4ED7C67725}
16.8983680000001,49.107402,101,U16324Z1,"Nížkovice, u hřiště",49.107402,16.898368,635,0,U16324N257,2\,,{AB0F7E3F-2BEA-4A2C-AC9E-853C3E335778}
16.900963,49.10952,102,U16322Z1,Nížkovice,49.10952,16.900963,635,0,U16322N260,2\,,{022208A1-1C88-4A7A-96DD-396EBCC72966}
16.9062480000001,49.11181,103,U16323Z1,"Nížkovice, Na hraničkách",49.11181,16.906248,635,0,U16323N261,2\,,{3DC84DA4-9E1B-4078-BF8D-4ACA774516BF}
16.9133130000001,49.119358,104,U16307Z1,Heršpice,49.119358,16.913313,635,0,U16307N262,2\,,{2747BB1E-3EAB-401A-B9B4-A1A559DE6858}
16.9102330000001,49.122422,105,U16308Z1,"Heršpice, zelnice",49.122422,16.910233,635,0,U16308N263,2\,,{F939432E-9374-42F4-86B7-85A370B633A9}
16.8738300000001,49.1447470000001,106,U16333Z2,"Slavkov u Brna, žel. st.",49.144747,16.87383,635,0,U16333N256,2\,,{B1804D0C-0AD3-4B51-9E14-B2DDB1CB8BBD}
16.057086,48.851706,107,U18009Z13,"Znojmo, autobusové nádraží",48.851706,16.057086,800,0,U18009N38,2\,6,{596CCF5A-00F8-4724-A63F-EF80CCFEC304}
16.060932,48.8431830000001,108,U18022Z1,"Znojmo, Vídeňská, u školy",48.843183,16.060932,800,0,U18022N264,2\,,{D39B0E38-043B-47DD-BBB4-957C67D9AF83}
16.0666820000001,48.837405,109,U18040Z2,"Znojmo, Dukelská, u mostu",48.837405,16.066682,800,0,U18040N265,2\,,{C1D4C095-3169-4E0E-8C00-EEFDE8A66CED}
16.110672,48.818411,110,U18055Z1,"Znojmo, Načeratice, host.",48.818411,16.110672,800,0,U18055N266,2\,,{4DA8A54D-3711-4A83-9CFE-DBAFD27143A6}
16.140661,48.8096,111,U18054Z1,"Znojmo, Derflice",48.8096,16.140661,800,0,U18054N267,2\,,{C551B4BF-1818-463D-A14A-6E3100E21314}
16.1725430000001,48.79636,112,U18129Z1,"Strachotice, obecní úřad",48.79636,16.172543,810,0,U18129N268,2\,,{8841FF69-F576-4635-9C55-3F5ED2DBA4F4}
16.1839670000001,48.795962,113,U18131Z1,"Strachotice, Micmanice",48.795962,16.183967,810,0,U18131N269,2\,,{50C78224-E1FF-40A0-AF06-0DC282FE9442}
16.1995450000001,48.781372,114,U18277Z1,Slup,48.781372,16.199545,829,0,U18277N270,2\,,{49AE54DF-F566-4A74-AAFF-D53537F09F34}
16.207227,48.77529,115,U18278Z1,"Slup, Oleksovičky, rozcestí",48.77529,16.207227,829,0,U18278N271,2\,,{7559DC4D-DD0A-4EA2-83C9-88A09F2621F1}
16.233215,48.757258,116,U18274Z1,Jaroslavice,48.757258,16.233215,829,0,U18274N272,2\,,{0B2E8BB1-1A4F-4C34-9842-24F6E9D2C6F0}
16.269938,48.775425,117,U18359Z2,"Hrádek, kulturní dům",48.775425,16.269938,839,0,U18359N273,2\,,{97A28147-4E14-46AE-AD48-37891A83AAE3}
16.2780310000001,48.7731920000001,118,U18363Z2,"Hrádek, u mlýna",48.773192,16.278031,839,0,U18363N274,2\,,{24E5629B-8F79-4EDB-AACF-272CA5788257}
16.2992100000001,48.772632,119,U18357Z2,"Dyjákovice, nad hostincem",48.772632,16.29921,839,0,U18357N275,2\,,{E1130539-F3B2-4816-8471-F893901F551C}
16.303553,48.7728050000001,120,U18358Z1,"Dyjákovice, škola",48.772805,16.303553,839,0,U18358N276,2\,,{6D6E8AE4-D069-4B2E-86E2-B1965EC9E7C4}
16.380257,48.7515100000001,121,U15775Z3,"Hevlín, škola",48.75151,16.380257,570,0,U15775N4,2\,,{40F0205E-D593-4BBD-91C8-9CCC12C29C49}
16.380187,48.7512850000001,122,U15775Z4,"Hevlín, škola",48.751285,16.380187,570,0,U15775N4,2\,,{9836981B-B498-445F-A197-63B216E00264}
16.303553,48.7728050000001,123,U18358Z2,"Dyjákovice, škola",48.772805,16.303553,839,0,U18358N276,2\,,{82DC46BF-B0D3-4E19-ABF5-5F7C7D4DD1FC}
16.299182,48.7726920000001,124,U18357Z1,"Dyjákovice, nad hostincem",48.772692,16.299182,839,0,U18357N275,2\,,{DFFCE7ED-790D-44AC-AFB9-D0B7DC90AC93}
16.2770780000001,48.773442,125,U18363Z1,"Hrádek, u mlýna",48.773442,16.277078,839,0,U18363N274,2\,,{193BE7CB-64E8-4DA6-ACA1-1663F5CAA1A8}
16.269504,48.775944,126,U18359Z1,"Hrádek, kulturní dům",48.775944,16.269504,839,0,U18359N273,2\,,{319C7752-3640-4A88-8060-A6DD8695AE8A}
16.233215,48.757258,127,U18274Z2,Jaroslavice,48.757258,16.233215,829,0,U18274N272,2\,,{50136ACD-FC55-40E4-9443-3FAF5093CFD1}
16.207205,48.775378,128,U18278Z2,"Slup, Oleksovičky, rozcestí",48.775378,16.207205,829,0,U18278N271,2\,,{A09005C1-5EAB-4474-A9BC-9547AEF63233}
16.21034,48.780555,129,U18279Z2,"Slup, Oleksovičky, u mostu",48.780555,16.21034,829,0,U18279N277,2\,,{7709CA0F-39C8-4E96-8585-F47DE3F43798}
16.1992920000001,48.781508,130,U18277Z2,Slup,48.781508,16.199292,829,0,U18277N270,2\,,{17CB12AA-1703-48D1-9A3A-45C78B612BF7}
16.18393,48.796048,131,U18131Z2,"Strachotice, Micmanice",48.796048,16.18393,810,0,U18131N269,2\,,{B249B272-E546-492B-9B70-D63A5E2FF8FF}
16.1727230000001,48.7965070000001,132,U18129Z2,"Strachotice, obecní úřad",48.796507,16.172723,810,0,U18129N268,2\,,{C56B7D77-0D7D-4FF4-B898-75045043010D}
16.140364,48.809781,133,U18054Z2,"Znojmo, Derflice",48.809781,16.140364,800,0,U18054N267,2\,,{D9C4672C-998D-4892-9736-5946C7C33039}
16.1105610000001,48.818567,134,U18055Z2,"Znojmo, Načeratice, host.",48.818567,16.110561,800,0,U18055N266,2\,,{BA0352BB-8386-4CDA-A40F-129A4B70BB73}
16.066447,48.8379550000001,135,U18040Z1,"Znojmo, Dukelská, u mostu",48.837955,16.066447,800,0,U18040N265,2\,,{105C6B07-E8FE-4003-8A19-B7BA56578B28}
16.0604960000001,48.8437940000001,136,U18022Z2,"Znojmo, Vídeňská, u školy",48.843794,16.060496,800,0,U18022N264,2\,,{98914423-0B38-47A1-8291-151BB56EE0C3}
16.5219060000001,48.980709,137,U15317Z6,"Pohořelice, náměstí",48.980709,16.521906,530,0,U15317N26,2\,2,{EB139721-F954-4FBB-AA1F-4847D15311B8}
16.505258,48.9786280000001,138,U15320Z1,"Pohořelice, obchodní akademie",48.978628,16.505258,530,0,U15320N96,2\,,{2AFEBDC1-A1DE-4670-A207-F1FE6F4DB02B}
16.4287370000001,48.9591070000001,139,U14011Z1,"Branišovice, státní silnice",48.959107,16.428737,449,0,U14011N95,2\,,{EC8A6129-0CE9-425A-A598-3670F8F183DD}
16.4134530000001,48.955275,140,U14024Z1,"Trnové Pole, rozcestí",48.955275,16.413453,449,0,U14024N94,2\,,{85DD6658-62E0-46F8-B5AD-FEFAC9448029}
16.362293,48.933498,141,U14552Z1,"Miroslav, rozcestí",48.933498,16.362293,459,0,U14552N93,2\,2,{42A09153-2253-4296-AEB2-0445484ADF61}
16.757613,49.103863,142,U16156Z3,"Újezd u Brna, městský úřad",49.103863,16.757613,610,0,U16156N325,2\,,{BE215EB5-3A23-49DA-AE66-F2387046C6C7}
16.48339,48.931067,143,U15434Z2,"Vlasatice, Troskotovická",48.931067,16.48339,540,0,U15434N21,2\,,{2757A200-1401-481E-9FE0-E213ADB1A62C}
17.006765,49.0153070000001,144,U16533Z2,"Želetice, statek",49.015307,17.006765,662,0,U16533N113,2\,,{66698BA8-8B8B-415C-97E8-C04956F36000}
16.7572730000001,49.1046900000001,145,U16156Z2,"Újezd u Brna, městský úřad",49.10469,16.757273,610,0,U16156N325,2\,,{2AA82441-F61A-4376-B6B5-BB110887B962}
16.4842580000001,48.933743,146,U15433Z2,"Vlasatice, obecní úřad",48.933743,16.484258,540,0,U15433N22,2\,,{C88CA15C-4F05-4DB0-BA1A-69BABB71F611}
16.748685,49.1067150000001,147,U16157Z2,"Újezd u Brna, Revoluční",49.106715,16.748685,610,0,U16157N324,2\,,{C1B95470-9735-4876-8222-84B2CCE02F5E}
17.020073,49.0319670000001,148,U16527Z2,Dražůvky,49.031967,17.020073,652,0,U16527N114,2\,,{F53A2A45-DF1E-42A1-9E3C-3DB2F04B29CE}
16.5194970000001,48.96221,149,U15325Z1,"Pohořelice, Velký Dvůr, rozcestí",48.96221,16.519497,530,0,U15325N23,2\,,{2E9CBC24-1382-40A3-B9A3-F7113143ECD2}
17.003877,49.043193,150,U16525Z2,Archlebov,49.043193,17.003877,652,0,U16525N115,2\,,{6A7514D3-7964-4B4E-975C-02D02780B0CE}
16.733573,49.108437,151,U16149Z3,"Sokolnice, železniční stanice",49.108437,16.733573,610,0,U16149N323,2\,3,{4EF5827E-BA0D-4877-8554-14775939F424}
16.516942,48.9719250000001,152,U15368Z1,"Pohořelice, průmyslová zóna jih",48.971925,16.516942,530,0,U15368N24,2\,,{2F15F8AF-0362-4F12-A3D1-37F4BFEBD2EA}
16.966415,49.0404720000001,153,U16449Z2,Žarošice,49.040472,16.966415,652,0,U16449N116,2\,,{8EDEBE01-1EF1-4ECB-B775-404DBA46445F}
16.7212020000001,49.1142330000001,154,U16145Z2,"Sokolnice, obecní úřad",49.114233,16.721202,610,0,U16145N322,2\,,{FAAC6FA2-AE06-4420-87A8-B3B6858AF60D}
16.515407,48.9770730000001,155,U15327Z1,"Pohořelice, Městský úřad",48.977073,16.515407,530,0,U15327N25,2\,,{44925E7C-52D4-44A2-A89E-29F7F7BA25ED}
16.9616,49.039435,156,U16448Z2,"Žarošice, škola",49.039435,16.9616,652,0,U16448N117,2\,,{330B0EEA-4EBE-4C2D-A63E-0FBD968A1397}
16.71486,49.114426,157,U16173Z2,"Sokolnice, Brněnská",49.114426,16.71486,610,0,U16173N321,2\,,{E62C06A1-8AA3-4E84-BF6D-DC243FD02592}
16.522413,48.9808780000001,158,U15317Z3,"Pohořelice, náměstí",48.980878,16.522413,530,0,U15317N26,2\,1,{3F719125-5584-4971-9F4B-B67AF0B31554}
16.9530800000001,49.051834,159,U16444Z2,"Žarošice, Silničná, rozcestí Uhřice",49.051834,16.95308,652,0,U16444N118,2\,,{3711EE15-F9CE-4DD3-94A6-141865E6B566}
16.684472,49.1314340000001,160,U1592Z4,Sokolnická,49.131434,16.684472,101,0,U1592N320,2\,,{77B09567-FD4D-40BE-A207-7E7C876DF51C}
16.530513,48.9849560000001,161,U15315Z2,"Pohořelice, Brněnská",48.984956,16.530513,530,0,U15315N27,2\,,{5C3FFA4D-85B7-49A5-B5C1-79622D6A0571}
16.945145,49.0654660000001,162,U16446Z2,"Žarošice, Zdravá Voda",49.065466,16.945145,643,0,U16446N119,2\,,{A3B637C4-0152-4F13-970E-F1AB8DED9A72}
16.6650970000001,49.143983,163,U1186Z2,Chrlická,49.143983,16.665097,101,0,U1186N319,1\,,{C784CF5A-964E-4DD6-9EA4-F44F56C35B93}
16.5407510000001,48.9905390000001,164,U15379Z2,"Pohořelice, průmyslová zóna východ",48.990539,16.540751,530,0,U15379N28,2\,,{2FA6B0A4-A7FA-4F5C-AC68-E10115BD3679}
16.936537,49.079165,165,U16445Z2,"Žarošice, Těšanka",49.079165,16.936537,643,0,U16445N120,2\,,{E1DB6E6E-AC0A-42CB-81DA-17A57C160672}
16.6618110000001,49.1500970000001,166,U1538Z2,Revoluční,49.150097,16.661811,101,0,U1538N318,2\,,{0F049963-2708-489D-AD68-4C32976BC6B0}
16.6049360000001,49.1301320000001,167,U15122Z4,"Modřice, Brněnská",49.130132,16.604936,510,0,U15122N29,2\,,{B74C450C-91F5-4D1C-AB72-D90DD101368F}
16.9095800000001,49.0958220000001,168,U16336Z2,"Heršpice, Bílý Vlk",49.095822,16.90958,635,0,U16336N121,2\,,{A771E76C-9B1E-4069-9F5A-9730F868340C}
16.65914,49.151301,169,U1118Z2,Glocova,49.151301,16.65914,101,0,U1118N317,2\,,{4090A188-F4BE-401A-8F5F-B555E48D6626}
16.597834,49.1707410000001,170,U1703Z7,Ústřední hřbitov,49.170741,16.597834,101,0,U1703N30,1\,,{27858C91-2D39-4278-837C-3535DFD4F230}
16.8961140000001,49.11172,171,U16337Z2,"Nížkovice, rozcestí",49.11172,16.896114,635,0,U16337N122,2\,,{20B45D1F-56CF-4FE4-9CB6-2858C2CC92AC}
16.6464340000001,49.156778,172,U1511Z2,Popelova,49.156778,16.646434,101,0,U1511N316,2\,,{A3A0A014-0FBC-4DF5-9CD5-CBA195F82EE8}
16.603976,49.178207,173,U1622Z1,Strážní,49.178207,16.603976,100,0,U1622N31,2\,,{7979E409-B736-4CC4-9E0E-71D7B9C5FFBA}
16.877933,49.1450300000001,174,U16332Z2,"Slavkov u Brna, rozc. k žel. st. 0.5",49.14503,16.877933,635,0,U16332N123,2\,,{12F09F6E-4D19-4862-B67A-A17C1A760668}
16.6262340000001,49.1697590000001,175,U1148Z2,Hněvkovského,49.169759,16.626234,101,0,U1148N315,1\,,{21C89C02-F03E-4C9B-89D3-AF1B97558544}
16.6161510000001,49.185364,176,U1696Z9,ÚAN Zvonařka,49.185364,16.616151,100,0,U1696N32,2\,34,{62CA48D1-AD4D-46F2-8CD4-83F4189D9C6E}
16.876562,49.149057,177,U16328Z2,"Slavkov u Brna, aut. st.",49.149057,16.876562,635,0,U16328N124,2\,2,{0277ACAE-4912-4606-85D2-81B3FDC32347}
16.6238240000001,49.172877,178,U1565Z2,Sazenice,49.172877,16.623824,101,0,U1565N326,1\,,{D5952ED1-9898-4584-BA70-3BFC420A9EA6}
16.603646,49.178477,179,U1622Z2,Strážní,49.178477,16.603646,100,0,U1622N31,2\,,{CB5BBF70-35DE-4021-93C7-BC80DFCF4287}
16.84187,49.1675720000001,180,U16334Z2,"Velešovice, rozc.",49.167572,16.84187,635,0,U16334N125,2\,,{150E51D5-B1D3-4CC0-9D6A-F47C1AF4C6F6}
16.619338,49.183322,181,U1807Z2,Železniční,49.183322,16.619338,100,0,U1807N314,2\,,{2B7564A4-372E-461F-BC15-D84D151B5420}
16.597612,49.1707440000001,182,U1703Z6,Ústřední hřbitov,49.170744,16.597612,101,0,U1703N30,1\,,{D060B42F-799B-4507-BFE6-D5652D52FADE}
16.8190950000001,49.1782670000001,183,U16206Z2,"Holubice, nadjezd",49.178267,16.819095,620,0,U16206N126,2\,,{6F59B2BA-A2F9-430F-9053-D9E536EA67FC}
17.1216410000001,48.854087,184,U19001Z12,"Hodonín, autobusové nádraží",48.854087,17.121641,900,0,U19001N145,2\,7,{46C309C3-D430-45F9-895A-8C1636FAC917}
16.6034690000001,49.130136,185,U15137Z10,"Modřice, Tyršova",49.130136,16.603469,510,0,U15137N33,2\,,{3F544E92-5A81-404B-AE7D-CD62ED0A1EAF}
16.6299720000001,49.1894070000001,186,U1677Z2,Tržní,49.189407,16.629972,100,0,U1677N127,2\,,{06EC0722-EA53-4C50-A30C-445F7B076906}
17.1337320000001,48.8555250000001,187,U19011Z1,"Hodonín, restaurace Morava",48.855525,17.133732,900,0,U19011N144,2\,,{DCBDB738-3391-4C84-8A52-47C1417026B4}
16.5393530000001,48.989921,188,U15379Z1,"Pohořelice, průmyslová zóna východ",48.989921,16.539353,530,0,U15379N28,2\,,{2E5E2359-8845-4D86-9E67-C2EA38B948D4}
16.6161510000001,49.185364,189,U1696Z6,ÚAN Zvonařka,49.185364,16.616151,100,0,U1696N32,2\,29,{55A9C500-114A-4114-853B-C22053DDCE68}
17.1407780000001,48.862895,190,U19007Z1,"Hodonín, lázně",48.862895,17.140778,900,0,U19007N143,2\,,{120BD432-8197-4587-BD4A-45FD58CF3F49}
16.529998,48.9848430000001,191,U15315Z1,"Pohořelice, Brněnská",48.984843,16.529998,530,0,U15315N27,2\,,{A5FCECC4-A0E0-4105-BF2A-9E7E5DEC9496}
16.6303140000001,49.1893420000001,192,U1677Z3,Tržní,49.189342,16.630314,100,0,U1677N127,2\,,{BCC096A9-7C40-41FF-9FFB-90ABBE36BC0B}
17.1422250000001,48.8664380000001,193,U19004Z1,"Hodonín, Černý most",48.866438,17.142225,900,0,U19004N142,2\,,{A6326CC7-D018-430E-9F64-322566F6B5AF}
16.5219060000001,48.980709,194,U15317Z4,"Pohořelice, náměstí",48.980709,16.521906,530,0,U15317N26,2\,2,{8F36352D-16A1-4FF3-B7E5-095663B75BAF}
16.819173,49.1780810000001,195,U16206Z1,"Holubice, nadjezd",49.178081,16.819173,620,0,U16206N126,2\,,{68243A0D-4FA0-4614-B150-67722B9A8CAE}
17.1467720000001,48.8723170000001,196,U19003Z1,"Hodonín, cihelna",48.872317,17.146772,900,0,U19003N141,2\,,{344201E7-0E41-40DB-9B9F-8972C77E6CAE}
16.5153480000001,48.976752,197,U15327Z2,"Pohořelice, Městský úřad",48.976752,16.515348,530,0,U15327N25,2\,,{BFF92A82-1103-47FF-86E6-752E1E860F08}
16.8428020000001,49.166882,198,U16334Z1,"Velešovice, rozc.",49.166882,16.842802,635,0,U16334N125,2\,,{3D35E9E9-EF1A-4875-AEEB-E19FD5F6261C}
17.1475070000001,48.8827620000001,199,U19009Z1,"Hodonín, Pánov",48.882762,17.147507,900,0,U19009N140,2\,,{B0843A26-6046-4A31-9DF1-58907864F958}
16.5168350000001,48.9713370000001,200,U15368Z2,"Pohořelice, průmyslová zóna jih",48.971337,16.516835,530,0,U15368N24,2\,,{6AF9BAEC-A8F3-49B8-AA14-220E727E8AC4}
16.876562,49.149057,201,U16328Z3,"Slavkov u Brna, aut. st.",49.149057,16.876562,635,0,U16328N124,2\,3,{E1A54398-443B-4F85-9FF9-6F9F4AC6F804}
17.1605940000001,48.915648,202,U19159Z1,"Ratíškovice, U Hájenky",48.915648,17.160594,917,0,U19159N139,2\,,{77A11CE5-1BB6-4DBF-ADC0-5625B1677FDE}
16.519344,48.9618600000001,203,U15325Z2,"Pohořelice, Velký Dvůr, rozcestí",48.96186,16.519344,530,0,U15325N23,2\,,{3F0ED47B-21FE-4995-B6DE-8F8B04D0389C}
16.878297,49.1439550000001,204,U16332Z1,"Slavkov u Brna, rozc. k žel. st. 0.5",49.143955,16.878297,635,0,U16332N123,2\,,{5BBC0913-55F8-4498-9997-F81587D201CD}
17.16175,48.92089,205,U19154Z1,Ratíškovice,48.92089,17.16175,917,0,U19154N138,2\,,{A7614A97-8478-4B95-B69C-5565B25FE56D}
16.484063,48.9337,206,U15433Z1,"Vlasatice, obecní úřad",48.9337,16.484063,540,0,U15433N22,2\,,{90EBC9CB-46AE-4607-A76B-936AAB0D7216}
16.8955990000001,49.1121200000001,207,U16337Z1,"Nížkovice, rozcestí",49.11212,16.895599,635,0,U16337N122,2\,,{EBD61452-D81A-49B7-BC57-7B8D06CEB83B}
17.1683840000001,48.9236240000001,208,U19160Z1,"Ratíškovice, u Svatého Jána",48.923624,17.168384,917,0,U19160N137,2\,,{2EEE1123-9D6E-45A9-BA68-DE1669433C87}
16.4835400000001,48.9311280000001,209,U15434Z1,"Vlasatice, Troskotovická",48.931128,16.48354,540,0,U15434N21,2\,,{B7543D23-ECB8-4FC3-B69A-4271FD7A4F69}
16.909428,49.0958130000001,210,U16336Z1,"Heršpice, Bílý Vlk",49.095813,16.909428,635,0,U16336N121,2\,,{A31BB399-2990-4766-BBE6-227ECE420290}
17.1688970000001,48.9313550000001,211,U19155Z1,"Ratíškovice, drůbežárna",48.931355,17.168897,917,0,U19155N136,2\,,{7E675932-1C10-40A5-A0A7-94B741195BAB}
16.4408980000001,48.921882,212,U15429Z1,"Troskotovice, hřbitov",48.921882,16.440898,540,0,U15429N20,2\,,{60AC1510-BB5A-424E-935A-64E399CDFBA0}
16.936517,49.0790050000001,213,U16445Z1,"Žarošice, Těšanka",49.079005,16.936517,643,0,U16445N120,2\,,{51FC6859-7B40-4779-AAF1-0927DF5498E6}
17.17065,48.9392800000001,214,U19162Z1,"Vacenovice, stadion",48.93928,17.17065,917,0,U19162N135,2\,,{E4925C8A-C10F-4533-8AAA-C14D35E459F8}
16.4366920000001,48.9188780000001,215,U15431Z1,"Troskotovice, škola",48.918878,16.436692,540,0,U15431N19,2\,,{BFD454DE-EB92-4555-A3BD-3DECD36B2451}
16.945145,49.0654660000001,216,U16446Z1,"Žarošice, Zdravá Voda",49.065466,16.945145,643,0,U16446N119,2\,,{5560FD83-1A07-41C7-801F-8B43B94B401C}
17.1741220000001,48.9454230000001,217,U19161Z3,Vacenovice,48.945423,17.174122,917,0,U19161N134,2\,,{D036DF27-7D49-4100-81BE-A84BB641AAED}
16.4325200000001,48.9186980000001,218,U15430Z1,"Troskotovice, prodejna",48.918698,16.43252,540,0,U15430N18,2\,,{09C76136-AB6C-40D0-9448-ED638EC4CACC}
16.9530060000001,49.051812,219,U16444Z1,"Žarošice, Silničná, rozcestí Uhřice",49.051812,16.953006,652,0,U16444N118,2\,,{D9A2F795-E854-4B1D-A3EC-90C1D919A975}
17.1520170000001,48.954322,220,U16804Z1,"Milotice, škola",48.954322,17.152017,685,0,U16804N133,2\,,{B7296667-E79E-4F39-8F2C-836D65DA4DDE}
16.39138,48.9206970000001,221,U15552Z1,Jiřice u Miroslavi,48.920697,16.39138,550,0,U15552N17,2\,,{B8227E5B-23E7-4760-B460-838D2034C897}
16.96142,49.039337,222,U16448Z1,"Žarošice, škola",49.039337,16.96142,652,0,U16448N117,2\,,{41E95977-CE25-443C-8C26-39A9E62305E8}
17.1423760000001,48.954794,223,U16802Z1,"Milotice, náves",48.954794,17.142376,685,0,U16802N132,2\,,{42F5562B-A500-4893-A615-AC448C4E5D9E}
16.4031400000001,48.8883970000001,224,U15554Z1,"Litobratřice, obecní úřad",48.888397,16.40314,550,0,U15554N16,2\,,{7ED1E9B1-FF91-415E-8A6F-B0A863BD2DA1}
16.9674820000001,49.0406170000001,225,U16449Z1,Žarošice,49.040617,16.967482,652,0,U16449N116,2\,,{7BF6B846-AF56-4773-B96B-EE3175869537}
17.140677,48.9654080000001,226,U16801Z1,"Milotice, dvůr",48.965408,17.140677,685,0,U16801N131,2\,,{E39FB646-483A-4826-B57D-710CAA27B351}
16.4007350000001,48.8834430000001,227,U15553Z1,"Litobratřice, u konírny",48.883443,16.400735,550,0,U15553N15,2\,,{17717C26-8274-46F7-A0D6-1D267893C18D}
17.00413,49.0431130000001,228,U16525Z1,Archlebov,49.043113,17.00413,652,0,U16525N115,2\,,{52EB40EE-CBBB-4ADB-BCAE-6D81A416CE1F}
17.153897,48.9815630000001,229,U16805Z1,Skoronice,48.981563,17.153897,685,0,U16805N130,2\,,{A28312A9-7F7B-41E8-AC59-3338E3862C22}
16.4037300000001,48.842928,230,U15635Z1,"Hrušovany nad Jevišovkou, STS",48.842928,16.40373,560,0,U15635N14,2\,,{F90148DB-0B74-429E-A829-0FFAE7D68E89}
17.020073,49.0319670000001,231,U16527Z1,Dražůvky,49.031967,17.020073,652,0,U16527N114,2\,,{62525CE5-F9C5-4A56-ABF5-B2EF5AD5576F}
17.1592600000001,48.9854730000001,232,U16819Z1,"Vlkoš, škola",48.985473,17.15926,685,0,U16819N129,2\,,{718C01B5-065B-4F5E-8641-3ADC78C0DED1}
16.4018980000001,48.8315170000001,233,U15632Z2,"Hrušovany nad Jevišovkou, Lidická, VÚPP",48.831517,16.401898,560,0,U15632N13,2\,,{CFA03AED-9ADE-4652-B0FC-8420B1652F7F}
17.006987,49.0151200000001,234,U16533Z1,"Želetice, statek",49.01512,17.006987,662,0,U16533N113,2\,,{8425E208-1FCD-4FF1-8314-3C93FE5AD77A}
17.1245470000001,49.006715,235,U16608Z3,"Kyjov, aut. st.",49.006715,17.124547,675,0,U16608N105,2\,15,{7F7A9142-A78E-494F-BEEB-8122755F68CF}
16.399635,48.82892,236,U15631Z1,"Hrušovany nad Jevišovkou, lékárna",48.82892,16.399635,560,0,U15631N12,2\,,{834184A0-EE53-4FDD-BD5E-DE7FCEBF5AF9}
17.009444,49.0126930000001,237,U16534Z1,Želetice,49.012693,17.009444,662,0,U16534N112,2\,,{A2FBEE51-065F-4A64-822C-B08C90EC8F5D}
17.1367220000001,49.0120380000001,238,U16609Z1,"Kyjov, Brandlova sídliště",49.012038,17.136722,675,0,U16609N327,2\,,{6B3BB9C2-E773-4D9F-B1F4-C8B4D0A1F676}
16.3977100000001,48.817595,239,U15634Z1,"Hrušovany nad Jevišovkou, statek",48.817595,16.39771,560,0,U15634N11,2\,,{CB5D4608-33DA-4739-B9B0-C8DFAA22CCE1}
17.007864,49.0017240000001,240,U16530Z1,"Nenkovice, u kašny",49.001724,17.007864,662,0,U16530N111,2\,,{71B4622A-6F8B-447A-A0F8-40FD3913D32E}
17.1527580000001,49.0268170000001,241,U16836Z2,"Kostelec, točna",49.026817,17.152758,687,0,U16836N328,2\,,{8C5975BC-4D3A-41CB-9C35-964FD3C45515}
16.39406,48.8112550000001,242,U15628Z1,"Hrabětice, rozcestí",48.811255,16.39406,560,0,U15628N10,2\,,{A047930F-2826-4E67-9173-21D13BDDE45D}
17.0113950000001,49.004197,243,U16528Z1,"Nenkovice, obecní úřad",49.004197,17.011395,662,0,U16528N110,2\,,{18019B6D-9670-4062-9B73-4109022E29AE}
17.1495820000001,49.0322850000001,244,U16835Z1,"Kostelec, horní zastávka",49.032285,17.149582,687,0,U16835N329,2\,,{857A8F70-F615-4B0E-B3A3-8345861A66A9}
16.3834680000001,48.810462,245,U15637Z1,"Hrušovany nad Jevišovkou, žel. st.",48.810462,16.383468,560,0,U15637N9,2\,,{5E07EF6E-B3F5-423E-9B5E-D4A13C76E36F}
17.015563,49.0046070000001,246,U16529Z1,"Nenkovice, škola",49.004607,17.015563,662,0,U16529N109,2\,,{62C5145A-2E74-4432-8D41-4719796C597E}
17.1543080000001,49.048863,247,U16826Z1,"Čeložnice, Domov důchodců",49.048863,17.154308,687,0,U16826N330,2\,,{0E30A032-5AB0-4C7B-80C8-7ADE4A0EDEFE}
16.374043,48.8020930000001,248,U15639Z1,"Šanov, požární zbrojnice",48.802093,16.374043,560,0,U15639N8,2\,,{0CC1AFE5-364E-4A01-8879-2DFBABB6244B}
17.0298770000001,49.0018680000001,249,U16635Z1,Stavěšice,49.001868,17.029877,662,0,U16635N108,2\,,{A7419486-5198-4F67-9F10-83B85B99FC71}
17.1545330000001,49.0515550000001,250,U16825Z1,Čeložnice,49.051555,17.154533,687,0,U16825N331,2\,,{456EA40F-18EC-451B-932C-BC461F7947D7}
16.386737,48.7992320000001,251,U15640Z1,"Šanov, u mostu",48.799232,16.386737,560,0,U15640N7,2\,,{E22E471F-2EB1-4953-9604-C3719B457AD6}
17.047132,49.0093000000001,252,U16622Z1,Strážovice,49.0093,17.047132,662,0,U16622N107,2\,,{A7EECFB2-6F78-4A34-8017-070C3018EEEC}
17.1545330000001,49.0515550000001,253,U16825Z2,Čeložnice,49.051555,17.154533,687,0,U16825N331,2\,,{099903F1-DF8B-41C7-BF4D-49B95890DEDB}
16.395113,48.796863,254,U15627Z1,Hrabětice,48.796863,16.395113,560,0,U15627N6,2\,,{23ED0B5B-5ECB-45B0-9844-5F8EF8C81225}
17.11013,49.0068450000001,255,U16612Z1,"Kyjov, nemocnice",49.006845,17.11013,675,0,U16612N106,2\,,{9F96FAE5-077B-479E-94AC-5EC17AB5F09D}
17.1543080000001,49.048863,256,U16826Z2,"Čeložnice, Domov důchodců",49.048863,17.154308,687,0,U16826N330,2\,,{614FF595-F84C-4D74-97D8-F238BB9EE95B}
16.383382,48.7615300000001,257,U15773Z1,"Hevlín, cihelna",48.76153,16.383382,570,0,U15773N5,2\,,{0B92A13B-1C2C-4127-AD49-33C24E9D84A2}
17.1239120000001,49.006873,258,U16608Z16,"Kyjov, aut. st.",49.006873,17.123912,675,0,U16608N105,2\,,{4453B19E-3C38-4336-899F-DC8791F10C50}
17.1495820000001,49.0322850000001,259,U16835Z2,"Kostelec, horní zastávka",49.032285,17.149582,687,0,U16835N329,2\,,{447D2B3F-E30B-47C8-BD31-701E46F657FD}
16.380257,48.7515100000001,260,U15775Z1,"Hevlín, škola",48.75151,16.380257,570,0,U15775N4,2\,,{97E349F6-45BE-4677-BFE9-ACF0C7D8AC58}
17.124285,49.006608,261,U16608Z8,"Kyjov, aut. st.",49.006608,17.124285,675,0,U16608N105,2\,7,{FE70A4F3-F645-40B8-98A7-1734E25B8D6B}
17.136515,49.011808,262,U16609Z2,"Kyjov, Brandlova sídliště",49.011808,17.136515,675,0,U16609N327,2\,,{296E7ADA-C608-4D65-B4F8-15ACA07CAFF8}
16.3827600000001,48.7320970000001,263,U15843Z1,"Hevlín, LAA BOMBA - SHOPPING CENTER",48.732097,16.38276,570,0,U15843N34,2\,,{EF4DA599-5165-4BBC-A5D4-4844FD0AD399}
17.1617200000001,48.9908550000001,264,U16817Z1,Vlkoš,48.990855,17.16172,685,0,U16817N128,2\,,{70934E49-9B28-4B57-B383-1183886A3DB8}
17.1221640000001,48.8541510000001,265,U19001Z16,"Hodonín, autobusové nádraží",48.854151,17.122164,900,0,U19001N145,2\,1,{14EFFD4C-6494-4510-ADB3-1309CF9B5DC8}
16.384622,48.7203930000001,266,U15829Z1,"Laa an der Thaya, Stadtplatz",48.720393,16.384622,580,0,U15829N35,2\,,{D8522F2C-876E-4A6E-AE88-30E3643BE2E8}
17.1591100000001,48.9853620000001,267,U16819Z2,"Vlkoš, škola",48.985362,17.15911,685,0,U16819N129,2\,,{D9000CE9-9AEF-4BA1-AB7F-02C87885D8D5}
17.100845,48.9108130000001,268,U19149Z2,"Dubňany, škola",48.910813,17.100845,917,0,U19149N332,2\,,{5A35E8DF-5237-4B93-8B1A-ACED9B5E8F75}
16.402679,48.722881,269,U15838Z1,"Laa an der Thaya, Bahnhof",48.722881,16.402679,580,0,U15838N36,2\,,{C6BD5AC8-7897-453C-B2A8-C8583DE9DC18}
17.153808,48.98157,270,U16805Z2,Skoronice,48.98157,17.153808,685,0,U16805N130,2\,,{8F6E30B0-5FB8-4380-BEBA-3FC8B4F20868}
17.0990200000001,48.9150730000001,271,U19151Z1,"Dubňany, u mlýna",48.915073,17.09902,917,0,U19151N333,2\,,{B8BA5FF4-2BA9-4050-9CFB-3C6787AD43A2}
16.395582,48.7230470000001,272,U15839Z1,"Laa an der Thaya, Therme",48.723047,16.395582,580,0,U15839N37,2\,,{AC2B0632-BAB9-44C6-9D4E-234F6D425A3D}
17.14059,48.965403,273,U16801Z2,"Milotice, dvůr",48.965403,17.14059,685,0,U16801N131,2\,,{08AFD2BE-D120-434B-A6BD-626C0C761E11}
17.09714,48.916573,274,U19147Z2,"Dubňany, pivnice",48.916573,17.09714,917,0,U19147N334,2\,,{AE651109-5B96-4AF8-82B0-8E85E7747D3A}
16.395582,48.7230470000001,275,U15839Z2,"Laa an der Thaya, Therme",48.723047,16.395582,580,0,U15839N37,2\,,{F9765E02-A164-4D2A-840C-5730B972969B}
17.1426920000001,48.954121,276,U16802Z2,"Milotice, náves",48.954121,17.142692,685,0,U16802N132,2\,,{1743A14D-A7DD-4202-BD6F-F20A38726F72}
17.0895190000001,48.9161990000001,277,U19143Z2,"Dubňany, kaplička",48.916199,17.089519,917,0,U19143N335,2\,,{6A449304-0CCE-4012-ACE3-BBCD06C44722}
16.402208,48.723331,278,U15838Z2,"Laa an der Thaya, Bahnhof",48.723331,16.402208,580,0,U15838N36,2\,,{EB5EB35C-0B21-451F-A81D-098968496BE3}
17.1521050000001,48.9542670000001,279,U16804Z2,"Milotice, škola",48.954267,17.152105,685,0,U16804N133,2\,,{37E88D21-4810-4C6C-9940-C86581FA332D}
17.084772,48.9179030000001,280,U19153Z2,"Dubňany, učiliště",48.917903,17.084772,917,0,U19153N336,2\,,{6FFFA6F1-281E-49C7-A0C0-9F286E7AAB6F}
16.384622,48.7203930000001,281,U15829Z2,"Laa an der Thaya, Stadtplatz",48.720393,16.384622,580,0,U15829N35,2\,,{A14A9DE2-D296-49C6-94DE-DC64116C1EB4}
17.1739920000001,48.945252,282,U19161Z2,Vacenovice,48.945252,17.173992,917,0,U19161N134,2\,,{BC5B8EE1-0692-4C22-BD62-B08441042497}
17.073568,48.9207050000001,283,U19148Z2,"Dubňany, rozcestí k železniční stanici",48.920705,17.073568,917,0,U19148N337,2\,,{259A0C5E-1E94-40C8-853F-4820982915AA}
16.3827600000001,48.7320970000001,284,U15843Z11,"Hevlín, LAA BOMBA - SHOPPING CENTER",48.732097,16.38276,570,0,U15843N34,2\,,{A2BB179F-7ECA-4E20-9149-EA0ABB1B6823}
17.170687,48.939803,285,U19162Z2,"Vacenovice, stadion",48.939803,17.170687,917,0,U19162N135,2\,,{92F49E16-E6C1-4A72-AA4D-A1E45669396C}
17.0758720000001,48.924738,286,U19142Z2,"Dubňany, Jarohněvice",48.924738,17.075872,917,0,U19142N338,2\,,{C4E05436-1CA8-44EC-80F5-FEE317E25204}
16.6161510000001,49.185364,287,U1696Z8,ÚAN Zvonařka,49.185364,16.616151,100,0,U1696N32,2\,33,{AEFDCF6C-307C-4249-AD2A-AD3F21E52F3F}
17.1689000000001,48.9319570000001,288,U19155Z2,"Ratíškovice, drůbežárna",48.931957,17.1689,917,0,U19155N136,2\,,{1C7691DF-26F4-4CBB-B9A2-B77F85B5CEC1}
17.0729880000001,48.92073,289,U19148Z1,"Dubňany, rozcestí k železniční stanici",48.92073,17.072988,917,0,U19148N337,2\,,{562B9632-85FB-4B8C-ABF1-666A8C042707}
16.0569830000001,48.851908,290,U18009Z51,"Znojmo, autobusové nádraží",48.851908,16.056983,800,0,U18009N38,2\,,{DD7EED9F-3B62-43E0-A9BD-BF34ED758FF3}
17.1681120000001,48.9236450000001,291,U19160Z2,"Ratíškovice, u Svatého Jána",48.923645,17.168112,917,0,U19160N137,2\,,{F9F401CB-FA1B-43B3-9F89-68479CED7FF4}
17.0851050000001,48.917672,292,U19153Z1,"Dubňany, učiliště",48.917672,17.085105,917,0,U19153N336,2\,,{4706CCF3-7958-418E-9221-D8C8E6C731B0}
16.057356,48.851886,293,U18009Z1,"Znojmo, autobusové nádraží",48.851886,16.057356,800,0,U18009N38,2\,5,{D101B428-0F7B-4A50-BD9A-FE6BDA907F98}
17.161482,48.9209470000001,294,U19154Z4,Ratíškovice,48.920947,17.161482,917,0,U19154N138,2\,,{7D00AEB1-943C-412B-9F2D-6AD3D4FBE304}
17.0937430000001,48.9171000000001,295,U19150Z1,"Dubňany, školka",48.9171,17.093743,917,0,U19150N339,2\,,{1A66474D-0AA5-4A78-9E7B-5DD864A185B8}
16.6161510000001,49.185364,296,U1696Z11,ÚAN Zvonařka,49.185364,16.616151,100,0,U1696N32,2\,31,{CCFB26A1-27E9-4523-8C77-3390433DE09A}
17.160449,48.914993,297,U19159Z2,"Ratíškovice, U Hájenky",48.914993,17.160449,917,0,U19159N139,2\,,{067E69A3-8417-4F10-90ED-EBD8C9DED5DC}
17.0880700000001,48.926363,298,U19141Z1,"Dubňany, Horní Huť",48.926363,17.08807,917,0,U19141N340,2\,,{7AA58B3B-64D9-49FC-972A-8F368A675DE7}
16.6266580000001,48.801587,299,U15714Z1,"Mikulov, železniční stanice",48.801587,16.626658,571,0,U15714N39,2\,1,{AF9DEE5C-BBEB-4C8B-AB2C-B6471B853836}
17.147405,48.8825640000001,300,U19009Z2,"Hodonín, Pánov",48.882564,17.147405,900,0,U19009N140,2\,,{B538E049-CCFD-4763-A157-9FDB445B7D60}
17.102671,48.920078,301,U19145Z1,"Dubňany, náměstí",48.920078,17.102671,917,0,U19145N341,2\,,{B0B058E0-0632-4217-9095-4636FF11CF6F}
16.63395,48.802552,302,U15709Z3,"Mikulov, u parku",48.802552,16.63395,571,0,U15709N40,2\,,{643A3930-15B7-48E5-BC73-30B30FD20DE5}
17.1463370000001,48.871897,303,U19003Z2,"Hodonín, cihelna",48.871897,17.146337,900,0,U19003N141,2\,,{8554D529-21C2-426F-91DF-C4DC6D110E01}
17.1084030000001,48.9227230000001,304,U19144Z1,"Dubňany, kostel",48.922723,17.108403,917,0,U19144N342,2\,,{314F7740-5016-43E3-A817-4CE9DF1029A7}
16.6304950000001,48.812258,305,U15702Z2,"Mikulov, Brněnská",48.812258,16.630495,571,0,U15702N41,2\,,{3D4FD3E2-122C-4F24-BA33-70736326FA38}
17.142004,48.8664350000001,306,U19004Z2,"Hodonín, Černý most",48.866435,17.142004,900,0,U19004N142,2\,,{F94C4EE5-5D3F-4833-AFC9-A9778CA62460}
17.1072340000001,48.9231,307,U19144Z2,"Dubňany, kostel",48.9231,17.107234,917,0,U19144N342,2\,,{261CE57E-CEB6-44E4-BE68-4D3BAA2E7A5B}
16.6128870000001,48.830925,308,U15701Z2,"Bavory, rozcestí",48.830925,16.612887,552,0,U15701N42,2\,,{B679FBD4-A267-4717-B8A8-09188D495894}
17.1404670000001,48.86267,309,U19007Z2,"Hodonín, lázně",48.86267,17.140467,900,0,U19007N143,2\,,{CC72A034-076A-4512-8DDD-8301896780A7}
17.102765,48.920289,310,U19145Z2,"Dubňany, náměstí",48.920289,17.102765,917,0,U19145N341,2\,,{C9D23D1E-E24D-4721-A36E-68EB6400E382}
16.6084250000001,48.851635,311,U15545Z2,"Dolní Dunajovice, rozcestí",48.851635,16.608425,552,0,U15545N43,2\,,{A233E86F-58D8-4F36-8A44-020D2F2A418A}
17.133451,48.855442,312,U19011Z2,"Hodonín, restaurace Morava",48.855442,17.133451,900,0,U19011N144,2\,,{C4092948-E833-45B7-B5AE-6588B132CE5A}
17.0930720000001,48.9170780000001,313,U19150Z2,"Dubňany, školka",48.917078,17.093072,917,0,U19150N339,2\,,{255A739A-BFAF-49FE-B5A3-67071896445D}
16.591977,48.8553230000001,314,U15544Z3,"Dolní Dunajovice, Jednota",48.855323,16.591977,552,0,U15544N44,2\,,{30E78232-BC3F-4BE4-BA06-5FC9D2BBB808}
17.121537,48.853643,315,U19001Z50,"Hodonín, autobusové nádraží",48.853643,17.121537,900,0,U19001N145,2\,,{32BBC885-48AB-4FB6-A5B8-81F7F9AD204C}
17.08939,48.9161550000001,316,U19143Z1,"Dubňany, kaplička",48.916155,17.08939,917,0,U19143N335,2\,,{E7A5CBBD-7F7C-407E-9F75-9A847A8C55AF}
16.5867900000001,48.8576370000001,317,U15543Z2,"Dolní Dunajovice, Hlavní",48.857637,16.58679,552,0,U15543N45,2\,,{DE166EB5-B706-4D4C-8BFD-193A954FBE90}
17.121874,48.8543980000001,318,U19001Z1,"Hodonín, autobusové nádraží",48.854398,17.121874,900,0,U19001N145,2\,13,{C350796E-0BF2-4C5D-B949-62628C2D76B8}
17.0955020000001,48.916235,319,U19147Z1,"Dubňany, pivnice",48.916235,17.095502,917,0,U19147N334,2\,,{F4B9D8A6-070F-4C80-B6CC-98106AAE176D}
16.5342860000001,48.874869,320,U15565Z2,"Brod nad Dyjí, obecní úřad",48.874869,16.534286,540,0,U15565N46,2\,,{1CE2AEEE-E6EB-45BC-9AB1-8C4D8C31D19F}
17.1188520000001,48.8626080000001,321,U19002Z2,"Hodonín, Brněnská",48.862608,17.118852,900,0,U19002N146,2\,,{805BE0F6-2909-49D2-B70F-2DD8BAB04BED}
17.09891,48.9150520000001,322,U19151Z2,"Dubňany, u mlýna",48.915052,17.09891,917,0,U19151N333,2\,,{86EA7328-5B12-409B-A54F-29A1FD9F4786}
16.487133,48.8574350000001,323,U15558Z4,Drnholec,48.857435,16.487133,551,0,U15558N47,2\,,{E2A8C6A9-A4AD-42FF-A5EA-5CC34E95740C}
17.116652,48.8716030000001,324,U19012Z2,"Hodonín, STS",48.871603,17.116652,900,0,U19012N147,2\,,{932F4E4A-B33C-4755-922D-8E3A5EEE8CD4}
17.1005470000001,48.911238,325,U19149Z1,"Dubňany, škola",48.911238,17.100547,917,0,U19149N332,2\,,{8BB72D21-CF02-4C07-AB31-E54B4D0C6A3A}
16.54164,48.90308,326,U15428Z2,"Pasohlávky, u kostela",48.90308,16.54164,540,0,U15428N48,2\,,{D79CD04E-F2D2-49B2-BED7-F16EA08AE092}
17.063292,48.887661,327,U19015Z2,"Hodonín, Zbrod",48.887661,17.063292,900,0,U19015N148,2\,,{B8CB6566-0F43-4EF2-9FC7-3B581C7BE36A}
16.8575070000001,48.995257,328,U16345Z5,"Klobouky u Brna, náměstí",48.995257,16.857507,640,0,U16345N161,2\,2,{728D3C35-DD4C-46F2-9C88-157126C312DF}
16.5564670000001,48.9196190000001,329,U15427Z2,"Pasohlávky, rozcestí Ivaň",48.919619,16.556467,540,0,U15427N49,2\,,{3B7B964D-4E15-4B29-888F-730DDA26C648}
17.028645,48.904657,330,U19103Z2,"Mutěnice, křižovatka",48.904657,17.028645,910,0,U19103N149,2\,,{95BF62C3-4CB5-4BCC-90E6-D5353B860B69}
16.862805,48.983635,331,U16346Z1,"Klobouky u Brna, ropovod",48.983635,16.862805,640,0,U16346N343,2\,,{BCB0C3FB-35AF-4E30-9E2B-DE926E061712}
16.528195,48.9373380000001,332,U15318Z2,"Pohořelice, Nová Ves",48.937338,16.528195,540,0,U15318N50,2\,,{C6A953FE-D1BC-45DC-98EC-6F7E527B37D4}
17.0189550000001,48.90765,333,U19104Z2,"Mutěnice, škola",48.90765,17.018955,910,0,U19104N150,2\,,{20E7DF91-72C0-47FA-818C-9DB7C28C9C46}
16.8620250000001,48.9755700000001,334,U16349Z1,"Klobouky u Brna, samota",48.97557,16.862025,640,0,U16349N344,2\,,{C4A2C005-E345-4D11-880A-831E52937944}
16.522413,48.9808780000001,335,U15317Z7,"Pohořelice, náměstí",48.980878,16.522413,530,0,U15317N26,2\,1,{7F9079E1-BE56-48AB-95AE-7DD3D317C9DD}
16.9854770000001,48.9428280000001,336,U16551Z2,"Hovorany, čerpací stanice",48.942828,16.985477,660,0,U16551N151,2\,,{55D8D100-6DCD-435B-B1C4-4B447D9131B1}
16.8631280000001,48.966503,337,U16355Z1,"Morkůvky, obecní úřad",48.966503,16.863128,650,0,U16355N345,2\,,{454E4B4B-0808-421B-B808-7A95A3A0B998}
16.6161510000001,49.185364,338,U1696Z10,ÚAN Zvonařka,49.185364,16.616151,100,0,U1696N32,2\,35,{F6AA0AC0-B14F-461F-9DE2-606FF220098E}
16.979543,48.9488430000001,339,U16554Z2,"Hovorany, rozcestí",48.948843,16.979543,660,0,U16554N152,2\,,{AC3332EE-894A-4F32-8FAE-4C1F4CB926AC}
16.8962930000001,48.9628950000001,340,U16453Z1,"Brumovice, škola",48.962895,16.896293,650,0,U16453N346,2\,,{1FA7AB90-8861-452E-AEE8-B9F4D342E216}
16.5219060000001,48.980709,341,U15317Z5,"Pohořelice, náměstí",48.980709,16.521906,530,0,U15317N26,2\,2,{16F55F33-C0E4-4B76-96FF-6C97C5985690}
16.9664510000001,48.9462270000001,342,U16545Z2,"Čejč, náměstí",48.946227,16.966451,660,0,U16545N153,2\,4,{BD196F60-8113-470C-9CF2-0ABD4EB8B5A1}
16.896238,48.9590900000001,343,U16452Z1,"Brumovice, obecní úřad",48.95909,16.896238,650,0,U16452N347,2\,,{BA5A350C-41F2-4543-8E2C-FD00B952D480}
16.528422,48.936807,344,U15318Z1,"Pohořelice, Nová Ves",48.936807,16.528422,540,0,U15318N50,2\,,{6D5CC5D5-C78A-4BCC-A726-00E63A7CECB7}
16.9408970000001,48.956778,345,U16462Z2,Terezín,48.956778,16.940897,650,0,U16462N154,2\,,{1100EE83-41B3-4620-A3A9-1B9ACFC32C23}
16.905878,48.947167,346,U16454Z1,"Brumovice, železniční stanice",48.947167,16.905878,650,0,U16454N348,2\,,{7D152A9D-3FED-4941-9094-57EC89CCB011}
16.5567090000001,48.918193,347,U15427Z1,"Pasohlávky, rozcestí Ivaň",48.918193,16.556709,540,0,U15427N49,2\,,{3DC4EF4A-6101-484A-AA71-17B0755E214A}
16.923568,48.9813980000001,348,U16460Z2,"Krumvíř, statek",48.981398,16.923568,640,0,U16460N155,2\,,{F9A03E58-ED62-4972-84DD-B178D5AAAD0D}
16.897075,48.9423180000001,349,U15539Z1,"Kobylí, statek",48.942318,16.897075,650,0,U15539N349,2\,,{3739E153-54B5-48FD-96F8-7577321A8F1F}
16.54164,48.90308,350,U15428Z1,"Pasohlávky, u kostela",48.90308,16.54164,540,0,U15428N48,2\,,{428FD772-92B5-4A92-99A1-92F0651EABBD}
16.9172170000001,48.985013,351,U16461Z2,"Krumvíř, železniční stanice",48.985013,16.917217,640,0,U16461N156,2\,,{D36DC5D6-8676-455E-AB89-D44F07DC645F}
16.884127,48.931883,352,U15538Z1,Kobylí,48.931883,16.884127,650,0,U15538N350,2\,,{5CE569E0-DA18-4007-A185-4BF155FEA2DE}
16.487133,48.8574350000001,353,U15558Z3,Drnholec,48.857435,16.487133,551,0,U15558N47,2\,,{15030A25-9418-468A-8155-B27C1D1146EA}
16.91042,48.9889700000001,354,U16457Z2,"Krumvíř, obecní úřad",48.98897,16.91042,640,0,U16457N157,2\,,{2BED3AA9-DB47-4407-80EE-A198FA5E62FB}
16.8866350000001,48.9287570000001,355,U15540Z1,"Kobylí, škola",48.928757,16.886635,650,0,U15540N351,2\,,{E9208A75-589F-465D-9845-2A9BE0664FE9}
16.534544,48.8748860000001,356,U15565Z1,"Brod nad Dyjí, obecní úřad",48.874886,16.534544,540,0,U15565N46,2\,,{C05AB7C3-BDFA-45D7-86CC-904A3AF949B8}
16.8932350000001,48.9935550000001,357,U16466Z2,"Krumvíř, supermarket",48.993555,16.893235,640,0,U16466N158,2\,,{3DBB203C-0688-4F59-A309-7805876ABCDA}
16.8959350000001,48.9162250000001,358,U15541Z1,"Vrbice, Jednota",48.916225,16.895935,650,0,U15541N352,2\,,{D1AA0E94-75DE-4E71-9CCD-E854CA2F7AFF}
16.5869670000001,48.8575670000001,359,U15543Z1,"Dolní Dunajovice, Hlavní",48.857567,16.586967,552,0,U15543N45,2\,,{04B01137-D096-4340-99E8-AEAB3880D592}
17.0811110000001,49.149167,360,U16509Z11,"Nesovice, železniční stanice",49.149167,17.081111,655,0,U16509N400,2\,,{37F1614B-50FE-4C74-A374-19D6181B4A91}
16.8785980000001,48.9945720000001,361,U16343Z2,"Klobouky u Brna, Nádražní",48.994572,16.878598,640,0,U16343N159,2\,,{69193D68-291A-4934-A58B-D1E84B0B6630}
16.8918120000001,48.912783,362,U15542Z1,"Vrbice, obecní úřad",48.912783,16.891812,650,0,U15542N353,2\,,{7932F816-B385-459D-88D9-B8124BF31356}
16.592543,48.8547370000001,363,U15544Z1,"Dolní Dunajovice, Jednota",48.854737,16.592543,552,0,U15544N44,2\,,{3F3B6A1F-67D3-4DEE-914F-F84E935E66B6}
16.866834,48.9951530000001,364,U16348Z2,"Klobouky u Brna, samoobsluha",48.995153,16.866834,640,0,U16348N160,2\,,{2D8A069A-2E86-434B-992E-0B1F29379D3C}
17.1208330000001,49.0138890000001,365,U16650Z51,"Kyjov, železniční stanice",49.013889,17.120833,675,0,U16650N401,2\,,{4CD1C735-6236-4636-9AF2-97C26B7E01C4}
16.8586720000001,48.910757,366,U15512Z1,"Bořetice, u Floriánka",48.910757,16.858672,555,0,U15512N354,2\,,{BAEA8EC1-ED7A-422C-BC0B-C53F94C33789}
16.6098200000001,48.8506150000001,367,U15545Z1,"Dolní Dunajovice, rozcestí",48.850615,16.60982,552,0,U15545N43,2\,,{AB42A3E2-6092-4B90-A189-BA558A932000}
16.85736,48.9953800000001,368,U16345Z2,"Klobouky u Brna, náměstí",48.99538,16.85736,640,0,U16345N161,2\,1,{1E30C8C7-5CF3-40D9-B6AD-8BB6563132A8}
17.2211550000001,48.976457,369,U26802Z11,Vracov,48.976457,17.221155,685,0,U26802N402,2\,,{3EF32EE7-D2C1-4009-A6E3-1946141CC419}
16.8540140000001,48.91189,370,U15511Z1,Bořetice,48.91189,16.854014,555,0,U15511N355,2\,,{54B31497-E8F9-4922-936E-9A4632400D63}
16.612673,48.8305930000001,371,U15701Z1,"Bavory, rozcestí",48.830593,16.612673,552,0,U15701N42,2\,,{170EBECE-EAE6-4E95-A101-AF2AA2FB5ED0}
16.8621860000001,49.000636,372,U16347Z2,"Klobouky u Brna, rozcestí",49.000636,16.862186,640,0,U16347N162,2\,,{BC3C65EF-EF73-4755-8BD5-D39F67377A2D}
17.263183,48.9691730000001,373,U16908Z11,"Bzenec, železniční stanice",48.969173,17.263183,695,0,U16908N403,2\,,{8CA2B9F2-4234-4808-91D6-01A6206C0E65}
16.852765,48.916475,374,U15513Z1,"Bořetice, železniční stanice",48.916475,16.852765,555,0,U15513N356,2\,,{E7B8A472-ED8E-4BB8-A265-E6B01280D6FF}
16.6305160000001,48.8120880000001,375,U15702Z1,"Mikulov, Brněnská",48.812088,16.630516,571,0,U15702N41,2\,,{A64A8823-3D6E-4BEB-BF0C-9288DD72ED58}
16.828293,49.0136670000001,376,U16344Z2,"Klobouky u Brna, Martinice, rozcestí",49.013667,16.828293,640,0,U16344N163,2\,,{2FBAA86A-AF5D-402A-8CBE-B3E679C9B75C}
17.382439,48.948694,377,U19316Z13,"Veselí nad Moravou, železniční stanice",48.948694,17.382439,935,0,U19316N404,2\,,{F6AE263A-79FC-46FD-A552-945A7EF17743}
16.834867,48.933338,378,U15517Z1,"Němčičky, u mlýna",48.933338,16.834867,555,0,U15517N357,2\,,{316CEEB4-875A-497B-B6D4-4EE4395201CA}
16.633496,48.805487,379,U15703Z1,"Mikulov, 22. dubna",48.805487,16.633496,571,0,U15703N51,2\,,{53BBE6BA-4202-453E-B7FA-8F390EB87C30}
16.7709350000001,49.0395030000001,380,U15226Z2,Těšany,49.039503,16.770935,525,0,U15226N164,2\,,{8793BCDF-C52F-42D5-B64A-AF7BDBC387CA}
17.403441,48.981817,381,U29404Z11,Uherský Ostroh,48.981817,17.403441,935,0,U29404N405,2\,,{0CF1BD3C-4B19-4381-A604-50F7D150D292}
16.8288690000001,48.9358050000001,382,U15518Z1,"Němčičky, ZD",48.935805,16.828869,555,0,U15518N358,2\,,{7780D057-DBF6-4EED-84DF-484CB7A8AC4B}
17.4363680000001,49.009594,383,U30314Z1,Ostrožská Nová Ves,49.009594,17.436368,947,0,U30314N406,2\,,{CD980B16-1AAE-4F9E-8247-0A24FAC03DC9}
16.7652150000001,49.041007,384,U15227Z2,"Těšany, u váhy",49.041007,16.765215,525,0,U15227N165,2\,,{DEA000F3-E1EB-490D-8CB2-3CA6D0ABCDA5}
16.821875,48.9349270000001,385,U15515Z1,"Němčičky, střed",48.934927,16.821875,555,0,U15515N359,2\,,{66E2EC11-A926-4F55-87F7-9791276B3D90}
17.4610230000001,49.038039,386,U31025Z2,Kunovice zastávka,49.038039,17.461023,957,0,U31025N407,2\,,{5077B5D2-4EA3-45B6-B0A8-8589F76B5E42}
16.7373900000001,49.049157,387,U15223Z2,"Moutnice, střed",49.049157,16.73739,525,0,U15223N166,2\,,{3313715E-B63B-4C86-A338-5A465B6E6CD9}
16.818862,48.9334000000001,388,U15516Z1,"Němčičky, transformátor",48.9334,16.818862,555,0,U15516N360,2\,,{6B6E9E60-1290-4C7E-8067-42A6A40B7EB0}
17.1150000000001,49.1330560000001,389,U16503Z11,"Nemotice, železniční stanice",49.133056,17.115,655,0,U16503N408,2\,,{B6916B88-7134-4501-91AA-0B84D8DDAB87}
16.737877,49.05312,390,U15232Z2,"Moutnice, Rozařín",49.05312,16.737877,525,0,U15232N167,2\,,{EE415788-D2CC-4DC1-9EEF-431FD6B459FC}
16.8160490000001,48.9365780000001,391,U15514Z1,"Němčičky, rozcestí",48.936578,16.816049,555,0,U15514N361,2\,,{7944719C-AAD4-4340-9842-AEEE7C6B665C}
17.124022,49.003117,392,U26603Z2,Kyjov zastávka,49.003117,17.124022,675,0,U26603N409,2\,,{19FE80AB-F5F6-4CCB-8505-285C7ED548C1}
16.7164760000001,49.087318,393,U15167Z1,"Měnín, rozcestí",49.087318,16.716476,610,0,U15167N168,2\,,{FC078DBB-8AEA-43A2-966B-10EE0CFB8356}
16.682148,49.169478,394,U1573Z11,"Slatina, nádraží",49.169478,16.682148,101,0,U1573N410,2\,,{DA8ADA69-7812-47B1-8D80-CF40D79F381A}
16.7174630000001,49.1024,395,U16138Z4,Telnice,49.1024,16.717463,610,0,U16138N169,2\,,{2DFFEA19-A752-4025-8508-B1E5BE5ECD7C}
17.1635690000001,48.987806,396,U26801Z11,Vlkoš,48.987806,17.163569,685,0,U26801N411,2\,,{D858A550-AE0D-41A8-A7CF-D2300BEC2D06}
16.705095,49.1147710000001,397,U16147Z2,"Sokolnice, rozvodna",49.114771,16.705095,610,0,U16147N170,2\,,{AEA6F169-336C-43BB-BE1F-4AECC6EBDA0F}
17.382439,48.948694,398,U19316Z12,"Veselí nad Moravou, železniční stanice",48.948694,17.382439,935,0,U19316N404,2\,,{60B7C258-B307-474A-9E33-347E3666C65B}
16.6663750000001,49.142326,399,U1681Z4,"Tuřany, smyčka",49.142326,16.666375,101,0,U1681N171,1\,,{429FBB7D-0473-4A71-AAE5-43267AAD031D}
17.263183,48.9691730000001,400,U16908Z10,"Bzenec, železniční stanice",48.969173,17.263183,695,0,U16908N403,2\,,{DED2D902-19C2-444D-A5FB-CDF21EEF3179}
16.6673710000001,49.1467060000001,401,U1131Z2,Hanácká,49.146706,16.667371,101,0,U1131N172,2\,,{FB950504-6B0A-409D-82AA-F6B745DBCEFF}
17.2211550000001,48.976457,402,U26802Z10,Vracov,48.976457,17.221155,685,0,U26802N402,2\,,{2E44D192-D498-4DD0-AC1A-612769CD2DE5}
16.653755,49.1536290000001,403,U1191Z2,Ivanovické náměstí,49.153629,16.653755,101,0,U1191N173,2\,,{F1B0D19E-E732-434A-A10C-0E0603BD15BE}
17.1635690000001,48.987806,404,U26801Z10,Vlkoš,48.987806,17.163569,685,0,U26801N411,2\,,{91A7CCFD-AFF2-46CC-9EED-0C1F8BDC7F16}
16.637387,49.1613970000001,405,U1533Z2,Ráječek,49.161397,16.637387,101,0,U1533N174,2\,,{59C524A0-D291-42F8-B97B-0A37407419F5}
17.124022,49.003117,406,U26603Z1,Kyjov zastávka,49.003117,17.124022,675,0,U26603N409,2\,,{6E6E89C3-FC2B-4E4B-A5FD-1A99D98DF17B}
16.6219350000001,49.1770940000001,407,U1361Z4,Mariánské náměstí,49.177094,16.621935,101,0,U1361N175,1\,,{108C1B50-E3B7-4441-B8F0-B54A9CC2E943}
17.1208330000001,49.0138890000001,408,U16650Z50,"Kyjov, železniční stanice",49.013889,17.120833,675,0,U16650N401,2\,,{D7659729-D1B6-4FD8-B115-BE8DC135373E}
16.621811,49.179332,409,U1266Z4,Konopná,49.179332,16.621811,100,0,U1266N176,2\,,{4E876772-AA53-448F-B0F9-FD7EC0C212AC}
17.1189170000001,49.0558330000001,410,U16604Z10,"Kyjov, Bohuslavice, železniční stanice",49.055833,17.118917,675,0,U16604N412,2\,,{7D9B727D-CAB4-42E4-B878-CBC794059156}
16.6161510000001,49.185364,411,U1696Z21,ÚAN Zvonařka,49.185364,16.616151,100,0,U1696N32,2\,,{4732FDA6-3084-44D2-A4FB-D0CBFD1FE8C2}
17.1133330000001,49.0888890000001,412,U26601Z1,Jestřabice,49.088889,17.113333,665,0,U26601N413,2\,,{CED65B9D-D09F-4F23-BBCA-21D91114610C}
17.124015,49.0065980000001,413,U16608Z12,"Kyjov, aut. st.",49.006598,17.124015,675,0,U16608N105,2\,10,{16F9F962-626D-430E-BE67-41ABF3ED989A}
17.1150000000001,49.1330560000001,414,U16503Z10,"Nemotice, železniční stanice",49.133056,17.115,655,0,U16503N408,2\,,{85202622-9492-4DDF-A5DF-31F8C86F6BA7}
17.172742,48.9870330000001,415,U16820Z1,"Vlkoš, Tesko",48.987033,17.172742,685,0,U16820N177,2\,,{AA5740DD-4DB7-4B01-93FD-24081E824CF2}
17.1337500000001,49.150361,416,U16628Z10,"Brankovice, železniční stanice",49.150361,17.13375,655,0,U16628N414,2\,,{5F7DECD7-673E-49FA-A6AD-D8924BEF2F7B}
17.2072900000001,48.981753,417,U16823Z1,"Vracov, Slokov",48.981753,17.20729,685,0,U16823N178,2\,,{D00D6005-B686-40CB-99E1-3A600C414D90}
17.0811110000001,49.149167,418,U16509Z10,"Nesovice, železniční stanice",49.149167,17.081111,655,0,U16509N400,2\,,{3FA42909-5146-4668-9347-08E7CF81521A}
17.219452,48.9796200000001,419,U16822Z1,"Vracov, obecní úřad",48.97962,17.219452,685,0,U16822N179,2\,,{DC397AEB-FCCE-4339-A42D-55D7C6B19649}
16.9996580000001,49.1456190000001,420,U16463Z50,"Bučovice, železniční stanice",49.145619,16.999658,645,0,U16463N399,2\,,{CA39A8BA-265B-4F91-A93C-6B16BB794314}
17.2512580000001,48.9729800000001,421,U16903Z1,"Bzenec, Nový Svět",48.97298,17.251258,695,0,U16903N180,2\,,{8173C59E-2F27-4E00-B6DF-FE11331D916D}
16.873475,49.1449500000001,422,U16333Z10,"Slavkov u Brna, žel. st.",49.14495,16.873475,635,0,U16333N256,2\,,{3904C9EC-2DD9-4D69-BFB3-1F16173DF65D}
17.2674670000001,48.9727800000001,423,U16901Z1,"Bzenec, náměstí",48.97278,17.267467,695,0,U16901N181,2\,,{553C3C12-FBE2-4F90-A71B-8503F8D38CD5}
16.682148,49.169478,424,U1573Z10,"Slatina, nádraží",49.169478,16.682148,101,0,U1573N410,2\,,{21F1CD25-511C-469A-ABE8-11B9F43A3D17}
17.2793970000001,48.970447,425,U16907Z1,"Bzenec, ZŠ",48.970447,17.279397,695,0,U16907N182,2\,,{0E33B5F3-F801-48FA-9AF4-A70885AB8D1A}
16.6312330000001,49.1889840000001,426,U11001Z1,Brno-Černovice,49.188984,16.631233,100,0,U11001N415,2\,,{B666C8B1-DF87-45BB-8352-B2B51234FA19}
17.286975,48.961827,427,U16900Z1,"Bzenec, Doubrava",48.961827,17.286975,695,0,U16900N183,2\,,{934D4F78-092F-4220-8009-FFA73C502C80}
17.46113,49.0384540000001,428,U31025Z1,Kunovice zastávka,49.038454,17.46113,957,0,U31025N407,2\,,{88EFF1AF-CAFE-408D-A09F-4F8048393F60}
17.4367970000001,49.0099750000001,429,U30314Z2,Ostrožská Nová Ves,49.009975,17.436797,947,0,U30314N406,2\,,{5AEC9000-9944-46AB-8C7A-1F282BAC79A4}
17.403538,48.982198,430,U29404Z10,Uherský Ostroh,48.982198,17.403538,935,0,U29404N405,2\,,{47E510FD-48CA-491C-A280-C8F305365E07}
16.7186380000001,49.1632710000001,431,U16136Z11,"Šlapanice, železniční zastávka",49.163271,16.718638,610,0,U16136N416,2\,,{C70DF895-4713-4959-8AE5-24346E947BC1}
16.9908330000001,49.2772220000001,432,U17446Z11,"Vyškov, železniční stanice",49.277222,16.990833,740,0,U17446N231,2\,,{FEE90330-A009-4FE2-83EA-42B362119AFF}
17.057778,49.291389,433,U27501Z2,Hoštice-Heroltice,49.291389,17.057778,750,0,U27501N417,2\,,{0BF99069-02D9-4055-A3E1-1F30F1924D06}
17.0869450000001,49.306111,434,U17514Z21,"Ivanovice na Hané, aut. st.",49.306111,17.086945,750,0,U17514N369,2\,,{98E9784E-AF06-4277-98E9-26DC506207FC}
17.111389,49.321667,435,U27502Z2,Chvalkovice na Hané,49.321667,17.111389,750,0,U27502N418,2\,,{4E165FC5-AF2A-4455-976D-06D33CA5BA1F}
17.1625,49.3360000000001,436,U27503Z2,Nezamyslice,49.336,17.1625,765,0,U27503N368,2\,,{30870CB5-9A56-4FD4-82DF-87184D9DBE9B}
17.1625,49.3360000000001,437,U27503Z1,Nezamyslice,49.336,17.1625,765,0,U27503N368,2\,,{0E462683-9E67-4761-A99A-9829091308C0}
17.111389,49.321667,438,U27502Z1,Chvalkovice na Hané,49.321667,17.111389,750,0,U27502N418,2\,,{DD99D8D8-9816-44D9-A427-3DB82ECE421A}
17.0869450000001,49.306111,439,U17514Z20,"Ivanovice na Hané, aut. st.",49.306111,17.086945,750,0,U17514N369,2\,,{86500617-05D3-423C-BADE-9BD432BAE30A}
17.057778,49.291389,440,U27501Z1,Hoštice-Heroltice,49.291389,17.057778,750,0,U27501N417,2\,,{B239BF03-0365-4895-AA9A-B859AE0FA5A3}
16.9908330000001,49.2772220000001,441,U17446Z10,"Vyškov, železniční stanice",49.277222,16.990833,740,0,U17446N231,2\,,{7EA2DD91-AE2C-49D6-97FD-22EBE2DDFF06}
16.383137,48.810029,442,U15637Z10,"Hrušovany nad Jevišovkou, žel. st.",48.810029,16.383137,560,0,U15637N9,2\,,{5FE794B7-DCF1-4F71-ACBC-046BEDB3EDD5}
16.287832,48.8232820000001,443,U18208Z10,"Božice, železniční stanice",48.823282,16.287832,820,0,U18208N419,2\,,{551A7BDB-DA1D-4FAD-BD0B-A4618BF740E7}
16.164403,48.8415140000001,444,U28101Z10,Hodonice,48.841514,16.164403,810,0,U28101N420,2\,,{C1FC056A-4396-4690-B669-BA4160FC80CB}
16.1205,48.8500470000001,445,U28102Z10,Dyje,48.850047,16.1205,810,0,U28102N421,2\,,{02C83179-2E0B-4DD0-9A28-C68E83EA905F}
16.059287,48.852761,446,U18009Z20,"Znojmo, autobusové nádraží",48.852761,16.059287,800,0,U18009N38,2\,,{A6F710A7-D58D-4410-8376-32F7354980C7}
16.8931690000001,48.7538510000001,447,U15729Z14,"Břeclav, autobusové nádraží",48.753851,16.893169,575,0,U15729N422,2\,,{8DE97D7C-9EE5-471F-943C-ECA5276B299A}
16.762369,48.7487760000001,448,U15828Z10,"Valtice, železniční zastávka",48.748776,16.762369,582,0,U15828N423,2\,,{FBA8292C-038A-4E0B-996D-E1875A9525FE}
16.7451170000001,48.74683,449,U15811Z10,"Valtice, železniční stanice",48.74683,16.745117,582,0,U15811N424,2\,,{9D0A53F6-CB21-4A5C-91D8-C677B032A2FB}
16.6990060000001,48.7745640000001,450,U25701Z10,Sedlec u Mikulova,48.774564,16.699006,582,0,U25701N425,2\,,{31B86958-6830-4183-A26C-1E16A8160C06}
16.6254920000001,48.8022030000001,451,U15714Z10,"Mikulov, železniční stanice",48.802203,16.625492,571,0,U15714N39,2\,,{BFEB5297-E3A6-4477-8B47-E694D3DB23C0}
16.5541690000001,48.8129250000001,452,U25601Z10,Březí,48.812925,16.554169,561,0,U25601N426,2\,,{7D8FF6FB-0F87-4F26-8D35-B0F18C73431C}
16.5338330000001,48.820008,453,U25602Z10,Dobré Pole,48.820008,16.533833,561,0,U25602N427,2\,,{FC857ECB-D556-4B4A-AF68-3D3FE574DF69}
16.4940500000001,48.825719,454,U15563Z10,"Novosedly, železniční stanice",48.825719,16.49405,551,0,U15563N428,2\,,{57D6AC5D-986E-42C3-93BD-E8BB7081A1D0}
16.4671250000001,48.820272,455,U25505Z10,Jevišovka,48.820272,16.467125,551,0,U25505N429,2\,,{7CFC75F4-F25A-4630-A719-F445A20A4215}
16.8663740000001,48.738078,456,U25702Z10,Boří les,48.738078,16.866374,575,0,U25702N430,2\,,{6D438620-0804-4373-8337-8DF519983A7D}
16.383137,48.810029,457,U15637Z11,"Hrušovany nad Jevišovkou, žel. st.",48.810029,16.383137,560,0,U15637N9,2\,,{A0948A31-04EB-412C-A4C3-CC086FBD4A08}
16.4671250000001,48.820272,458,U25505Z11,Jevišovka,48.820272,16.467125,551,0,U25505N429,2\,,{661CD78D-8B89-445A-B697-92ADEC96DE77}
16.4940500000001,48.825719,459,U15563Z11,"Novosedly, železniční stanice",48.825719,16.49405,551,0,U15563N428,2\,,{C5BECBF7-8D1F-4057-8A50-85472573DA20}
16.5338330000001,48.820008,460,U25602Z11,Dobré Pole,48.820008,16.533833,561,0,U25602N427,2\,,{4FE403E0-36A1-4924-926F-D4EF057DBA22}
16.5541690000001,48.8129250000001,461,U25601Z11,Březí,48.812925,16.554169,561,0,U25601N426,2\,,{CE070779-6036-413B-9AFD-456A741726A9}
16.6254920000001,48.8022030000001,462,U15714Z11,"Mikulov, železniční stanice",48.802203,16.625492,571,0,U15714N39,2\,,{F5639FAC-13E8-45F4-B411-2258A585B2C3}
16.6990060000001,48.7745640000001,463,U25701Z11,Sedlec u Mikulova,48.774564,16.699006,582,0,U25701N425,2\,,{55DD6752-F786-4D19-B19D-344000FEF4F6}
16.7451170000001,48.74683,464,U15811Z11,"Valtice, železniční stanice",48.74683,16.745117,582,0,U15811N424,2\,,{32CF19E6-A3B6-47E6-898C-9007DAEAA814}
16.762369,48.7487760000001,465,U15828Z11,"Valtice, železniční zastávka",48.748776,16.762369,582,0,U15828N423,2\,,{75B65276-AAF4-4AEA-B7B4-461305DE2618}
16.8663740000001,48.738078,466,U25702Z11,Boří les,48.738078,16.866374,575,0,U25702N430,2\,,{8D36C15E-6939-4C37-9DEE-B2D1A33159C5}
16.8931690000001,48.7538510000001,467,U15729Z15,"Břeclav, autobusové nádraží",48.753851,16.893169,575,0,U15729N422,2\,,{BB7F923D-FF65-4435-B1F0-28C29AA9EB92}
16.059287,48.852761,468,U18009Z21,"Znojmo, autobusové nádraží",48.852761,16.059287,800,0,U18009N38,2\,,{97C12993-0DAA-4BBA-9669-C4BC8D5AC1FE}
16.1205,48.8500470000001,469,U28102Z11,Dyje,48.850047,16.1205,810,0,U28102N421,2\,,{3966666F-CCD5-4E64-884B-060DCAAABB2B}
16.164403,48.8415140000001,470,U28101Z11,Hodonice,48.841514,16.164403,810,0,U28101N420,2\,,{8E810539-F67F-476B-8DBA-87B3E938BE2F}
16.287832,48.8232820000001,471,U18208Z11,"Božice, železniční stanice",48.823282,16.287832,820,0,U18208N419,2\,,{1A42C7E8-B502-4101-A8D2-71BCC3BFEAEE}
16.60686,49.167404,472,U11002Z11,Brno-Horní Heršpice,49.167404,16.60686,101,0,U11002N431,2\,,{F6C7DE2E-8F86-4997-AD52-B6BEC7BECD40}
16.605647,49.103463,473,U15135Z11,"Popovice, u tratě",49.103463,16.605647,510,0,U15135N432,2\,,{9D982BF5-FABB-45B4-8520-62E179A976C7}
16.6053200000001,49.0849660000001,474,U15181Z11,"Rajhrad, železniční stanice",49.084966,16.60532,510,0,U15181N73,2\,,{0E04BFB8-A12D-459B-8430-1B1CB082473E}
16.5974450000001,49.056208,475,U25201Z11,"Vojkovice nad Svratkou, žel. st.",49.056208,16.597445,525,0,U25201N433,2\,,{424AF56D-E119-4D83-9787-69816AE7F74A}
16.5915010000001,49.034228,476,U15222Z11,"Hrušovany u Brna, žel. st.",49.034228,16.591501,525,0,U15222N434,2\,,{23E0A650-8E0D-456D-B0D2-409B9BEF142B}
16.594722,49.010278,477,U15306Z11,"Žabčice, žel. st.",49.010278,16.594722,535,0,U15306N435,2\,,{BA784D8E-D99C-4F26-A297-93DF856978F2}
16.604187,48.964528,478,U15307Z11,"Vranovice, žel.st.",48.964528,16.604187,535,0,U15307N436,2\,,{E196B329-9C51-44EF-A5DB-B060F4831340}
16.630527,48.9420250000001,479,U25401Z11,Pouzdřany,48.942025,16.630527,545,0,U25401N437,2\,,{502D1368-36A3-43CA-9974-E9A506076876}
16.668084,48.924332,480,U25402Z11,Popice,48.924332,16.668084,545,0,U25402N438,2\,,{76AB1805-5301-40B6-B67A-84B910021A15}
16.70557,48.9128830000001,481,U15425Z11,"Šakvice, železniční stanice",48.912883,16.70557,545,0,U15425N439,2\,,{3BC4D6DC-DE35-4062-BD68-EB086D2BB0E8}
16.7359010000001,48.9375200000001,482,U15403Z11,"Hustopeče, autobusové nádraží",48.93752,16.735901,545,0,U15403N440,2\,,{B6122229-C19F-4282-8825-F61DA8A581DB}
16.7359010000001,48.9375200000001,483,U15403Z10,"Hustopeče, autobusové nádraží",48.93752,16.735901,545,0,U15403N440,2\,,{D0C165E5-72B1-4A4B-A516-1D81CA91E06C}
16.70557,48.9128830000001,484,U15425Z10,"Šakvice, železniční stanice",48.912883,16.70557,545,0,U15425N439,2\,,{359FC436-FD09-4407-BA53-AF741FB79233}
16.668084,48.924332,485,U25402Z10,Popice,48.924332,16.668084,545,0,U25402N438,2\,,{41E09E9E-21D3-415D-81DD-7488F09C4E52}
16.630527,48.9420250000001,486,U25401Z10,Pouzdřany,48.942025,16.630527,545,0,U25401N437,2\,,{19331247-FDB2-42C0-B97B-F5FF8C328694}
16.604187,48.964528,487,U15307Z10,"Vranovice, žel.st.",48.964528,16.604187,535,0,U15307N436,2\,,{E044192F-D45C-4182-B767-BB1F92EFC9D1}
16.33352,48.918435,488,U14557Z1,"Miroslav, Kašenec, státní silnice",48.918435,16.33352,459,0,U14557N92,2\,,{62297460-75BF-44A0-95FA-696FBCF547C1}
16.594722,49.010278,489,U15306Z10,"Žabčice, žel. st.",49.010278,16.594722,535,0,U15306N435,2\,,{5818C0E8-AA9D-4E5D-9AD3-D8659994214B}
16.5915010000001,49.034228,490,U15222Z10,"Hrušovany u Brna, žel. st.",49.034228,16.591501,525,0,U15222N434,2\,,{8FD3FE28-FD59-47D2-BF0A-9F4EF90773F4}
16.6053200000001,49.0849660000001,491,U15181Z10,"Rajhrad, železniční stanice",49.084966,16.60532,510,0,U15181N73,2\,,{83875594-7EDE-49F6-85D0-B26F3980E089}
16.606209,49.1332560000001,492,U15140Z10,"Modřice, železniční stanice",49.133256,16.606209,510,0,U15140N390,2\,,{15224C8D-E997-4E70-AF69-1103E1CEADBE}
16.627505,49.2204320000001,493,U1331Z10,"Lesná, nádraží",49.220432,16.627505,101,0,U1331N441,2\,,{3A71F498-693B-4F50-8895-CC62B00B1AFC}
16.590446,49.250794,494,U1557Z10,"Řečkovice, nádraží",49.250794,16.590446,101,0,U1557N442,2\,,{090A7FEB-940B-4CCA-9AB7-79EB2025351E}
16.5667310000001,49.284546,495,U13109Z10,"Česká, železniční stanice",49.284546,16.566731,310,0,U13109N443,2\,,{365A4750-6BFC-4179-9C71-DEBC95BCD510}
16.4652780000001,49.3197220000001,496,U13206Z10,"Čebín, železniční stanice",49.319722,16.465278,320,0,U13206N444,2\,,{4D3BF6D9-D93C-41D2-9740-DD2BDF9A7913}
16.4380560000001,49.333603,497,U13306Z10,"Hradčany, železniční stanice",49.333603,16.438056,330,0,U13306N445,2\,,{BC1FDBBF-68E8-4388-8718-3CF26E21A94A}
16.3469450000001,49.356389,498,U13411Z10,"Dolní Loučky, železniční stanice",49.356389,16.346945,340,0,U13411N446,2\,,{6BFB9CAF-1936-4B2F-B84C-DB36A794DE86}
16.3058330000001,49.3658330000001,499,U13425Z10,"Řikonín, železniční stanice",49.365833,16.305833,340,0,U13425N447,2\,,{489A7B47-1CD7-4F4E-BBD6-3E18170C1FB5}
16.269007,49.3352750000001,500,U13454Z10,"Níhov, železniční stanice",49.335275,16.269007,345,0,U13454N448,2\,,{5CF97F04-0940-4B64-A4F2-55FD020A6F81}
16.2111110000001,49.323611,501,U30008Z1,Vlkov u Tišnova,49.323611,16.211111,355,0,U30008N449,2\,,{5E01B64A-D4B4-4B20-93B9-85B242DE2156}
16.292692,48.9006370000001,502,U15557Z1,"Mackovice, rozcestí",48.900637,16.292692,459,0,U15557N91,2\,,{7C43F88B-F8E2-4518-9DF1-E173A95EAACD}
16.2601920000001,48.8875320000001,503,U18217Z1,"Oleksovice, rozcestí",48.887532,16.260192,820,0,U18217N90,2\,,{E47EC980-1C3F-433F-9AD4-BE41C9D62EB2}
16.236347,48.8753380000001,504,U18215Z1,"Lechovice, zámek",48.875338,16.236347,820,0,U18215N89,2\,,{FF9232D6-EC30-4F44-9800-C0212B025E85}
16.222179,48.872558,505,U18214Z1,"Lechovice, obecní úřad",48.872558,16.222179,820,0,U18214N88,2\,,{0E3FFE02-E035-46F1-A1E5-DBB2ADC62DFA}
16.053823,48.853569,506,U18058Z2,"Znojmo, nám.Republiky",48.853569,16.053823,800,0,U18058N278,2\,,{59B1E97A-C0B1-487A-8F06-385353E6D611}
16.533415,48.9623130000001,507,U15324Z2,"Pohořelice, Velký Dvůr",48.962313,16.533415,530,0,U15324N54,2\,,{6EC1D4A4-D643-4C9F-BCAF-F933F2454969}
16.5308420000001,48.956485,508,U15316Z2,"Pohořelice, Mariánský dvůr",48.956485,16.530842,530,0,U15316N53,2\,,{EDD480A1-0ADD-423C-A77D-A57B2883FD1B}
16.5313330000001,48.948333,509,U15326Z2,"Pohořelice, Vilémov",48.948333,16.531333,530,0,U15326N52,2\,,{12D34006-930E-4ACE-B6BC-97F28EA3A2B5}
16.259511,48.950522,510,U14543Z3,"Hostěradice, náměstí",48.950522,16.259511,459,0,U14543N279,2\,,{62942E0B-21D3-4154-8581-81B5F6B7BF96}
16.20106,48.916498,511,U18224Z1,Vítonice,48.916498,16.20106,820,0,U18224N280,2\,,{518F8C94-FB49-4812-9100-317EE9E82E7D}
16.190322,48.903893,512,U18221Z1,"Prosiměřice, u bufetu",48.903893,16.190322,810,0,U18221N281,2\,,{751B7167-3877-4753-8300-38E42DEFEC12}
16.1576240000001,48.887956,513,U18135Z1,"Těšetice, na hlavní",48.887956,16.157624,810,0,U18135N282,2\,,{804C7FC9-EFC8-4C62-922D-4D3AA0A0D993}
16.1066530000001,48.8688780000001,514,U18116Z1,"Suchohrdly, Purkrábka",48.868878,16.106653,800,0,U18116N283,2\,,{5E126ED2-10E9-4B95-BAF1-366B5D3C4787}
16.0962220000001,48.868297,515,U18115Z1,"Suchohrdly, kurty",48.868297,16.096222,800,0,U18115N284,2\,,{63D8C1A1-0852-4E9A-8B42-C0FF843A7BD6}
16.0892020000001,48.866425,516,U18110Z2,"Suchohrdly, prodejna",48.866425,16.089202,800,0,U18110N285,2\,,{9073DC3B-08A0-4A1A-933B-F46E3D220F95}
16.0664350000001,48.857448,517,U18002Z2,"Znojmo, Suchohrdelská, hřbitov",48.857448,16.066435,800,0,U18002N286,2\,,{7850FCBE-9EBC-4894-803D-B9BBF7F367AC}
16.6161510000001,49.185364,518,U1696Z13,ÚAN Zvonařka,49.185364,16.616151,100,0,U1696N32,2\,32,{006C5230-34B7-4D9B-93AD-20C18287CDDE}
16.362293,48.933498,519,U14552Z4,"Miroslav, rozcestí",48.933498,16.362293,459,0,U14552N93,2\,2,{2FC5E836-1379-47A9-8B9E-179E04181DD0}
16.3372230000001,48.9335800000001,520,U14551Z2,"Miroslav, Réna",48.93358,16.337223,459,0,U14551N287,2\,,{4EA66D72-03E8-46A0-B9CD-731F9FC5ACAE}
16.321227,48.941947,521,U14550Z2,"Miroslav, provozovna ČAS",48.941947,16.321227,459,0,U14550N288,2\,,{FB0B2F38-88DE-430B-BE31-48452462310F}
16.317908,48.945973,522,U14554Z2,"Miroslav, statek",48.945973,16.317908,459,0,U14554N289,2\,,{60BE77EE-6213-4250-BA9A-01552560E528}
16.3130610000001,48.946832,523,U14546Z2,"Miroslav, autobusové nádraží",48.946832,16.313061,459,0,U14546N290,2\,4,{AC1E47F9-DD39-4B37-B4E5-BF40FC781388}
16.3129970000001,48.946991,524,U14546Z3,"Miroslav, autobusové nádraží",48.946991,16.312997,459,0,U14546N290,2\,5,{F0002391-6A8E-4E64-AC98-7605447B15AF}
16.317705,48.946,525,U14554Z1,"Miroslav, statek",48.946,16.317705,459,0,U14554N289,2\,,{94919481-569A-4867-962D-662DB8941273}
16.3211380000001,48.9419830000001,526,U14550Z1,"Miroslav, provozovna ČAS",48.941983,16.321138,459,0,U14550N288,2\,,{088B61BA-DF42-4D1C-AEF3-7D1CDD6BDCC7}
16.3374220000001,48.933435,527,U14551Z1,"Miroslav, Réna",48.933435,16.337422,459,0,U14551N287,2\,,{250E5D0B-A31B-49DA-8EF3-CE706005E8F8}
16.327708,48.919183,528,U14558Z1,"Miroslav, Kašenec, točna",48.919183,16.327708,459,0,U14558N291,2\,,{AB10E3CB-A2EC-41A1-BD2F-6C406938E10F}
16.3625240000001,48.933616,529,U14552Z13,"Miroslav, rozcestí",48.933616,16.362524,459,0,U14552N93,2\,1,{129F3A3D-65F5-4429-BFD5-6FBB60825EA2}
16.3080630000001,48.945453,530,U14548Z2,"Miroslav, jesle",48.945453,16.308063,459,0,U14548N292,2\,,{4833B2D4-30F9-404A-B103-E9C149EF587E}
16.264753,48.9470020000001,531,U14542Z2,"Hostěradice, lom",48.947002,16.264753,459,0,U14542N293,2\,,{E0B95C61-954B-4248-9AC3-C1747FEDBA59}
16.2596060000001,48.9506420000001,532,U14543Z1,"Hostěradice, náměstí",48.950642,16.259606,459,0,U14543N279,2\,,{2AF7BE72-889D-476D-B8B0-84FA94190400}
16.259511,48.950522,533,U14543Z2,"Hostěradice, náměstí",48.950522,16.259511,459,0,U14543N279,2\,,{2A4CB072-D7F8-4D75-896C-28046D42992D}
16.265652,48.94687,534,U14542Z1,"Hostěradice, lom",48.94687,16.265652,459,0,U14542N293,2\,,{C225C0B7-7212-4989-A366-BB197E585EA6}
16.3078100000001,48.9448800000001,535,U14548Z1,"Miroslav, jesle",48.94488,16.30781,459,0,U14548N292,2\,,{EEC2D53B-8E50-421E-B012-84EC4A33D7ED}
16.057106,48.851903,536,U18009Z3,"Znojmo, autobusové nádraží",48.851903,16.057106,800,0,U18009N38,2\,9,{F7EA9D3F-5516-4C29-BB09-E5016E793DEE}
16.0669600000001,48.85731,537,U18002Z1,"Znojmo, Suchohrdelská, hřbitov",48.85731,16.06696,800,0,U18002N286,2\,,{9EFDC812-4CD3-4B32-9F99-AB2E73E883DB}
16.089328,48.8663970000001,538,U18110Z1,"Suchohrdly, prodejna",48.866397,16.089328,800,0,U18110N285,2\,,{FEA3F183-6F4B-4435-A684-A8A20A5FB26A}
16.096818,48.868387,539,U18115Z2,"Suchohrdly, kurty",48.868387,16.096818,800,0,U18115N284,2\,,{302324EA-6F0E-45D0-93EC-63328E69D4F4}
16.106813,48.8688270000001,540,U18116Z2,"Suchohrdly, Purkrábka",48.868827,16.106813,800,0,U18116N283,2\,,{21B3BB19-5ED3-4465-BA53-320BF745E9EF}
16.1578410000001,48.8880940000001,541,U18135Z2,"Těšetice, na hlavní",48.888094,16.157841,810,0,U18135N282,2\,,{FF1134A8-E9E2-46D1-9940-8A4EC95B78E9}
16.1845500000001,48.88332,542,U18117Z1,Bantice,48.88332,16.18455,810,0,U18117N294,2\,,{3D84652B-13C1-496B-91E9-3ABC5B01EC10}
16.214773,48.89529,543,U18222Z1,Stošíkovice na Louce,48.89529,16.214773,820,0,U18222N295,2\,,{1DECBF9F-8162-4AF0-8DF5-718C25412D2A}
16.1966410000001,48.8904580000001,544,U18223Z1,"Stošíkovice na Louce, rozcestí",48.890458,16.196641,810,0,U18223N296,2\,,{779C5FDD-96F7-4444-A018-8D2E5CFE9256}
16.192215,48.902718,545,U18219Z2,"Prosiměřice, hostinec",48.902718,16.192215,810,0,U18219N297,2\,,{28386E4B-CA9E-41F2-9A36-1768AC55EBB9}
16.201035,48.9163330000001,546,U18224Z2,Vítonice,48.916333,16.201035,820,0,U18224N280,2\,,{EE2F9613-BD8A-4DAB-9E12-CDA01920C1E7}
16.2433600000001,48.904747,547,U18218Z2,"Oleksovice, u potoka",48.904747,16.24336,820,0,U18218N298,2\,,{FECC90F3-D0D1-4282-9AC7-72476D10A0A7}
16.259511,48.950522,548,U14543Z6,"Hostěradice, náměstí",48.950522,16.259511,459,0,U14543N279,2\,,{6C943F13-654A-4150-A4C4-8CBF4D6A97E4}
16.3625240000001,48.933616,549,U14552Z3,"Miroslav, rozcestí",48.933616,16.362524,459,0,U14552N93,2\,1,{AEF885E1-9B06-41EB-BBFB-729622CF2F06}
16.3736480000001,48.9200870000001,550,U15550Z2,Damnice,48.920087,16.373648,550,0,U15550N299,2\,,{61B4B125-5A7A-4B21-BEC2-933DF5A0C67C}
16.3648480000001,48.909272,551,U15551Z1,Dolenice,48.909272,16.364848,550,0,U15551N300,2\,,{EC96D936-CF08-4A7E-A924-3156FD352D26}
16.3648480000001,48.909272,552,U15551Z2,Dolenice,48.909272,16.364848,550,0,U15551N300,2\,,{DF563A0D-E553-49AB-99C2-2C80149686EB}
16.373542,48.9201380000001,553,U15550Z1,Damnice,48.920138,16.373542,550,0,U15550N299,2\,,{E7519ED4-73E1-481E-9AD8-E80D94A75088}
16.39138,48.9206970000001,554,U15552Z3,Jiřice u Miroslavi,48.920697,16.39138,550,0,U15552N17,2\,,{08C1AA49-3D5B-4EC2-9801-BD8ABFF3AE3C}
16.362293,48.933498,555,U14552Z14,"Miroslav, rozcestí",48.933498,16.362293,459,0,U14552N93,2\,2,{A2ABCA3E-90DE-438A-9F3E-BFC38CFEAD4C}
16.363188,48.9430120000001,556,U14565Z2,Suchohrdly u Miroslavi,48.943012,16.363188,459,0,U14565N301,2\,,{AF84F3FA-EB35-4FE3-ADF3-841EBCA59268}
16.4018980000001,48.8315170000001,557,U15632Z3,"Hrušovany nad Jevišovkou, Lidická, VÚPP",48.831517,16.401898,560,0,U15632N13,2\,,{E160C185-F5A6-4958-BBFE-20DE3A92D8E6}
16.394073,48.8298570000001,558,U15636Z2,"Hrušovany nad Jevišovkou, Znojemská",48.829857,16.394073,560,0,U15636N302,2\,,{D02BCDAC-C9B5-4343-85B5-06D1E2D14D98}
16.361952,48.843938,559,U15638Z2,Pravice,48.843938,16.361952,560,0,U15638N303,2\,,{4B3020DA-2E5A-46F9-8688-AEBC722EB8F2}
16.3441980000001,48.867867,560,U15546Z2,"Břežany, u hostince",48.867867,16.344198,550,0,U15546N304,2\,,{ABA352F6-7474-4157-9D7B-621638D92673}
16.339543,48.8701770000001,561,U15547Z2,"Břežany, u pošty",48.870177,16.339543,550,0,U15547N305,2\,,{261EDBB1-8B93-47A0-B230-00CB8583B0A4}
16.3382300000001,48.872375,562,U15548Z2,"Břežany, u statku",48.872375,16.33823,550,0,U15548N306,2\,,{1DCB6CA1-6F60-4CFB-A437-7A8F1ABAAD7C}
16.347558,48.887033,563,U15566Z2,"Břežany, osada Ležák",48.887033,16.347558,550,0,U15566N307,2\,,{FE705946-CD11-4BCF-9945-8F852A4586E7}
16.8829000000001,48.996567,564,U16353Z1,Kašnice,48.996567,16.8829,640,0,U16353N308,2\,,{9E6377BB-91BD-473F-AB5D-F97BE8490E2D}
16.8629270000001,48.998318,565,U16356Z1,"Klobouky u Brna, hřbitov",48.998318,16.862927,640,0,U16356N309,2\,,{5BC9F5D6-4BC6-49EC-830B-459D5AFD20A2}
16.812873,49.024797,566,U16342Z2,"Borkovany, Štoček",49.024797,16.812873,630,0,U16342N310,2\,,{24BB78A2-A428-421B-9ED7-9EEE204911C9}
16.80985,49.0287030000001,567,U16340Z2,Borkovany,49.028703,16.80985,630,0,U16340N311,2\,,{8281C5B4-569B-440B-86DA-E43E93CFA25C}
16.8048000000001,49.029167,568,U16341Z2,"Borkovany, Tomášov",49.029167,16.8048,630,0,U16341N312,2\,,{D7143EF7-3E11-4A8A-9D4C-3F631562A619}
16.6161510000001,49.185364,569,U1696Z7,ÚAN Zvonařka,49.185364,16.616151,100,0,U1696N32,2\,27,{B1D74AF9-A115-4703-9173-9C5ADF165E3C}
16.621339,49.180126,570,U1266Z3,Konopná,49.180126,16.621339,100,0,U1266N176,2\,,{3269E1A9-B37F-48AD-A820-334EBC85E782}
16.6224480000001,49.1744400000001,571,U1256Z3,Komárov,49.17444,16.622448,101,0,U1256N313,1\,,{D76D911D-7F6C-44D3-9EC5-3B45FACC3F3B}
16.638242,49.160802,572,U1533Z1,Ráječek,49.160802,16.638242,101,0,U1533N174,2\,,{658A4B16-5B77-42CF-928F-1DAC6288C860}
16.6537910000001,49.1530660000001,573,U1191Z1,Ivanovické náměstí,49.153066,16.653791,101,0,U1191N173,2\,,{D9E5B590-0594-475F-AAF9-ABC3292FDECB}
16.6659750000001,49.1461630000001,574,U1131Z7,Hanácká,49.146163,16.665975,101,0,U1131N172,2\,,{62B4A78B-76B7-4380-ABDA-262111D664E6}
16.667828,49.1414070000001,575,U1681Z3,"Tuřany, smyčka",49.141407,16.667828,101,0,U1681N171,1\,,{F2A0D99B-0E64-4CB8-A227-905938E6E7E0}
16.704663,49.1150620000001,576,U16147Z1,"Sokolnice, rozvodna",49.115062,16.704663,610,0,U16147N170,2\,,{F7307297-9044-4DC4-A568-2DF91E46E5EE}
16.7178230000001,49.1016020000001,577,U16138Z3,Telnice,49.101602,16.717823,610,0,U16138N169,2\,,{E9181BAD-2E98-4F39-8A01-CA41F9ED2BE4}
16.7164730000001,49.0871250000001,578,U15167Z2,"Měnín, rozcestí",49.087125,16.716473,610,0,U15167N168,2\,,{EA55DC32-7966-4380-B56A-04A2CBF64C28}
16.737351,49.05247,579,U15232Z1,"Moutnice, Rozařín",49.05247,16.737351,525,0,U15232N167,2\,,{5C5970E2-22CC-48DD-8B13-FFB2BAE4D97C}
16.736746,49.0489670000001,580,U15223Z1,"Moutnice, střed",49.048967,16.736746,525,0,U15223N166,2\,,{0A90C594-9298-43D0-82AE-0B1937CF718E}
16.7649250000001,49.0410220000001,581,U15227Z1,"Těšany, u váhy",49.041022,16.764925,525,0,U15227N165,2\,,{38EAA756-B5A8-4625-8831-201359C9FBDE}
16.7713190000001,49.039299,582,U15226Z1,Těšany,49.039299,16.771319,525,0,U15226N164,2\,,{CF7618FB-34D5-4422-896E-7A98ECEFAA8F}
16.8048620000001,49.029118,583,U16341Z1,"Borkovany, Tomášov",49.029118,16.804862,630,0,U16341N312,2\,,{5838D9D4-B900-4C10-909D-FC4019BC79C6}
16.809738,49.0284830000001,584,U16340Z1,Borkovany,49.028483,16.809738,630,0,U16340N311,2\,,{306AC7ED-8682-4B88-824B-389AE8A76F24}
16.812867,49.024727,585,U16342Z1,"Borkovany, Štoček",49.024727,16.812867,630,0,U16342N310,2\,,{8167A7BE-E90E-4E16-B52C-BC2263DAD165}
16.8283720000001,49.0134420000001,586,U16344Z1,"Klobouky u Brna, Martinice, rozcestí",49.013442,16.828372,640,0,U16344N163,2\,,{F7D5A54E-8949-4FE6-8334-69348F7586E1}
16.8626580000001,49.000525,587,U16347Z1,"Klobouky u Brna, rozcestí",49.000525,16.862658,640,0,U16347N162,2\,,{C3CA9341-9309-4F48-B080-B14BFBA821FE}
16.85736,48.9953800000001,588,U16345Z1,"Klobouky u Brna, náměstí",48.99538,16.85736,640,0,U16345N161,2\,1,{BECC75B2-E4D0-4DF3-ADBE-24DD474CE7C9}
16.8827880000001,48.9965330000001,589,U16353Z2,Kašnice,48.996533,16.882788,640,0,U16353N308,2\,,{AA48A9F0-864C-43DF-B8D1-2E68CF863D97}
16.8932990000001,48.9934390000001,590,U16466Z1,"Krumvíř, supermarket",48.993439,16.893299,640,0,U16466N158,2\,,{FF0AEEC8-268D-4439-A15C-53EF9F0C6D2B}
16.910692,48.988888,591,U16457Z1,"Krumvíř, obecní úřad",48.988888,16.910692,640,0,U16457N157,2\,,{8C844891-832E-425C-9EAB-7B69B46AB0C6}
16.917183,48.984948,592,U16461Z1,"Krumvíř, železniční stanice",48.984948,16.917183,640,0,U16461N156,2\,,{5CBADA09-5958-4A58-94BE-89382142F522}
16.9234220000001,48.9813980000001,593,U16460Z1,"Krumvíř, statek",48.981398,16.923422,640,0,U16460N155,2\,,{130D25F9-BD62-48FC-AAEB-82F37CECB873}
16.940727,48.956737,594,U16462Z1,Terezín,48.956737,16.940727,650,0,U16462N154,2\,,{5B7F8F67-C06B-4CA9-B9EC-5137D959962A}
16.966935,48.9458680000001,595,U16545Z1,"Čejč, náměstí",48.945868,16.966935,660,0,U16545N153,2\,3,{8CF6D3E9-C8DB-40D2-ACDA-461621A03643}
16.9799120000001,48.948342,596,U16554Z1,"Hovorany, rozcestí",48.948342,16.979912,660,0,U16554N152,2\,,{741ABF7F-2B76-4D7A-88E7-824C00C637D6}
16.9861920000001,48.9417020000001,597,U16551Z1,"Hovorany, čerpací stanice",48.941702,16.986192,660,0,U16551N151,2\,,{1CCE3A47-0783-4CC3-B505-3AEA09523BDC}
17.019163,48.90752,598,U19104Z1,"Mutěnice, škola",48.90752,17.019163,910,0,U19104N150,2\,,{F92DC1CD-E071-4F14-8C9E-6B0B46DED5DC}
17.0288170000001,48.904497,599,U19103Z1,"Mutěnice, křižovatka",48.904497,17.028817,910,0,U19103N149,2\,,{701B5F74-9FC6-4BDD-8BFD-D373BE121F23}
17.0660330000001,48.887819,600,U19015Z1,"Hodonín, Zbrod",48.887819,17.066033,900,0,U19015N148,2\,,{7E99370F-69E3-40A6-AFA0-54AFE07CD884}
16.8181530000001,48.9020750000001,601,U15531Z1,"Velké Pavlovice, obchodní středisko",48.902075,16.818153,555,0,U15531N362,2\,,{9BBFCC1E-F2C3-42E9-9F1E-E21EB39FC700}
17.28984,48.936445,602,U16905Z1,"Bzenec, Přívoz, železniční stanice",48.936445,17.28984,695,0,U16905N184,2\,,{CB3BA55A-8B2C-4CE9-AC18-4FD5CCC97501}
17.294041,48.9359870000001,603,U16917Z1,"Bzenec, Přívoz",48.935987,17.294041,695,0,U16917N185,2\,,{2AFB8588-4860-49E6-89E2-1A27DF8F2F9B}
17.310663,48.9093970000001,604,U19204Z1,"Strážnice, ATC",48.909397,17.310663,925,0,U19204N186,2\,,{579CCC74-5EB9-449E-8FFF-1E9A94D6527E}
17.3180120000001,48.9024400000001,605,U19207Z1,"Strážnice, náměstí 17. listopadu",48.90244,17.318012,925,0,U19207N187,2\,,{67427193-E0DE-4931-84E7-807FC5BB8A26}
17.3159380000001,48.8983220000001,606,U19205Z51,"Strážnice, aut. st.",48.898322,17.315938,925,0,U19205N188,2\,,{19AE10D0-867C-4C3F-8F12-D94B80FD7C80}
17.3158020000001,48.8983930000001,607,U19205Z2,"Strážnice, aut. st.",48.898393,17.315802,925,0,U19205N188,2\,7,{D5899B65-2524-4DF0-8104-6E0CD8454933}
17.318367,48.9024150000001,608,U19207Z2,"Strážnice, náměstí 17. listopadu",48.902415,17.318367,925,0,U19207N187,2\,,{DB4735B5-7555-46EA-94AF-8B0C25E97522}
17.310663,48.9093970000001,609,U19204Z2,"Strážnice, ATC",48.909397,17.310663,925,0,U19204N186,2\,,{C3C8ADDE-5697-45C1-AF26-082B2D0B834A}
17.2938100000001,48.9368260000001,610,U16917Z2,"Bzenec, Přívoz",48.936826,17.29381,695,0,U16917N185,2\,,{E40B9657-FEDE-4642-A593-CC38F2631696}
17.2871650000001,48.961533,611,U16900Z2,"Bzenec, Doubrava",48.961533,17.287165,695,0,U16900N183,2\,,{E0C97704-8B8B-4AB8-9E9C-7417CCCA474E}
17.279883,48.970537,612,U16907Z2,"Bzenec, ZŠ",48.970537,17.279883,695,0,U16907N182,2\,,{7E11671C-8E53-4103-9DA3-DD789F69CD2F}
17.265269,48.9732470000001,613,U16901Z2,"Bzenec, náměstí",48.973247,17.265269,695,0,U16901N181,2\,,{6385728B-CBA1-49EE-A142-A504CCC0B64C}
17.2516830000001,48.9729550000001,614,U16903Z2,"Bzenec, Nový Svět",48.972955,17.251683,695,0,U16903N180,2\,,{0F12C67A-143D-4E93-A334-3B54F90EBB54}
17.21934,48.979768,615,U16822Z2,"Vracov, obecní úřad",48.979768,17.21934,685,0,U16822N179,2\,,{4559E1B9-A6C1-411E-A19A-8F4A221635C0}
17.2082070000001,48.9817800000001,616,U16823Z2,"Vracov, Slokov",48.98178,17.208207,685,0,U16823N178,2\,,{8F2A2CB5-05B2-4C59-BAB4-090FD5B31B77}
17.1724330000001,48.987175,617,U16820Z2,"Vlkoš, Tesko",48.987175,17.172433,685,0,U16820N177,2\,,{7AC1653E-0EAF-4891-A576-70D6B2DD88BE}
17.1620830000001,48.9907440000001,618,U16817Z2,Vlkoš,48.990744,17.162083,685,0,U16817N128,2\,,{94C9E110-2BA1-4DDD-A817-75914CC58CBD}
16.6405120000001,49.1769540000001,619,U1106Z2,Faměrovo náměstí,49.176954,16.640512,101,0,U1106N189,2\,,{AC961C15-884B-4C18-90C5-DA214FE406B8}
16.6382600000001,49.18111,620,U1662Z2,Textilní kombinát,49.18111,16.63826,100,0,U1662N190,2\,,{D3582CCB-36BA-4A40-BE6E-A7A3F24B5421}
16.636538,49.1850390000001,621,U1563Z2,Psychiatrická nemocnice,49.185039,16.636538,100,0,U1563N191,2\,,{5E50CECE-714A-4CF0-BAE3-C2C7DF182EB5}
16.6334830000001,49.187576,622,U1207Z2,Jiránkova,49.187576,16.633483,100,0,U1207N192,2\,,{7E77878C-A7B1-442C-A8FD-3DE7406B1DCA}
16.6257410000001,49.187865,623,U1144Z2,Hladíkova,49.187865,16.625741,100,0,U1144N193,1\,,{85357BDD-DFD3-4EDB-8FB3-EAD2E5D640A6}
16.6179740000001,49.1869090000001,624,U1011Z3,Autobusové nádraží,49.186909,16.617974,100,0,U1011N2,2\,,{92B48C48-ED97-4A4D-A908-9B5B66BC62E9}
16.613733,49.189244,625,U1716Z3,Úzká,49.189244,16.613733,100,0,U1716N194,1\,4,{160AF5DE-1DED-430C-957D-53EDB383F760}
16.95703,49.0110750000001,626,U16439Z1,Násedlovice,49.011075,16.95703,652,0,U16439N195,2\,,{D0C8EA00-BEBF-4DD3-A8B2-64D0B3BA1AF1}
16.95822,49.009217,627,U16438Z1,"Násedlovice, u hřiště",49.009217,16.95822,652,0,U16438N196,2\,,{E117DBA4-1ACD-4906-A863-2E80564AC77D}
16.966958,49.007262,628,U16437Z1,"Násedlovice, mlýn",49.007262,16.966958,652,0,U16437N197,2\,,{633415FE-A59E-45B5-98C8-A084E5EBB65F}
16.6132660000001,49.189107,629,U1716Z4,Úzká,49.189107,16.613266,100,0,U1716N194,1\,5,{08EE4D63-E189-456F-B1F0-D78CB6899515}
16.6130240000001,49.1852450000001,630,U1463Z2,Opuštěná,49.185245,16.613024,100,0,U1463N198,1\,,{A3CB1266-15EA-44BD-9566-EB9412A322F1}
16.618479,49.1868870000001,631,U1011Z4,Autobusové nádraží,49.186887,16.618479,100,0,U1011N2,2\,,{016DC221-8191-4454-A694-9422BD93858F}
16.6253530000001,49.1876820000001,632,U1144Z1,Hladíkova,49.187682,16.625353,100,0,U1144N193,1\,,{0555913E-0837-43FC-A40A-FABD1BA97A7E}
16.633494,49.1874950000001,633,U1207Z1,Jiránkova,49.187495,16.633494,100,0,U1207N192,2\,,{7DB61482-BB08-4C52-A244-320D46ECD562}
16.6363210000001,49.1850890000001,634,U1563Z1,Psychiatrická nemocnice,49.185089,16.636321,100,0,U1563N191,2\,,{A53492E7-5603-485E-84C7-C8843DCD963E}
16.637572,49.1824960000001,635,U1662Z1,Textilní kombinát,49.182496,16.637572,100,0,U1662N190,2\,,{2EE54B7F-6547-4B0A-9B5B-4FACBF2AA428}
16.6404200000001,49.176788,636,U1106Z1,Faměrovo náměstí,49.176788,16.64042,101,0,U1106N189,2\,,{A2DF8125-7B6F-490C-BB89-1FD21E6E15E3}
16.168305,49.329893,637,U30305Z1,Osová Bítýška,49.329893,16.168305,355,0,U30305N450,2\,,{8C1A5731-2762-466F-B523-D2D2626A0330}
17.1243270000001,49.006785,638,U16608Z1,"Kyjov, aut. st.",49.006785,17.124327,675,0,U16608N105,2\,6,{A87CBA47-BE71-434B-A007-2D6E75C4DCA0}
16.9667670000001,49.0073170000001,639,U16437Z2,"Násedlovice, mlýn",49.007317,16.966767,652,0,U16437N197,2\,,{0CA1DECB-4F2C-4DCA-AA9B-3DDF5E269F9C}
16.958217,49.0091800000001,640,U16438Z2,"Násedlovice, u hřiště",49.00918,16.958217,652,0,U16438N196,2\,,{F8B018DC-B30A-4518-9A31-B7F09C1B2018}
16.9589930000001,49.0120590000001,641,U16439Z2,Násedlovice,49.012059,16.958993,652,0,U16439N195,2\,,{19084624-C70D-4EB6-B329-BA966D01DB22}
17.124242,49.0064150000001,642,U16608Z14,"Kyjov, aut. st.",49.006415,17.124242,675,0,U16608N105,2\,5,{759D7D56-CEC5-49C4-B849-ECECE9E1DC88}
17.080587,49.017682,643,U16619Z2,"Sobůlky, ZD",49.017682,17.080587,662,0,U16619N199,2\,,{8B1CE5C5-93D4-442B-BD73-2114B58CA6C6}
17.0785050000001,49.0212700000001,644,U16620Z2,Sobůlky,49.02127,17.078505,662,0,U16620N200,2\,,{60E6D651-E2B8-44DA-BD3C-3C24CF8E64CC}
17.0562370000001,49.0283680000001,645,U16531Z2,Věteřov,49.028368,17.056237,662,0,U16531N201,2\,,{986225C5-C2E2-453A-8A6E-76C5E5A020FD}
17.022837,49.039952,646,U16526Z2,"Dražůvky, rozcestí",49.039952,17.022837,652,0,U16526N202,2\,,{0E3B8AD0-5063-45A2-8402-9E430DA131F6}
17.266377,48.9725500000001,647,U16901Z3,"Bzenec, náměstí",48.97255,17.266377,695,0,U16901N181,2\,,{BC341D03-9A88-4906-A3B0-5D6A883D2A1B}
17.020073,49.0319670000001,648,U16527Z3,Dražůvky,49.031967,17.020073,652,0,U16527N114,2\,,{3274D2B8-B255-4BA9-8669-7D341E03315C}
17.0226950000001,49.039815,649,U16526Z1,"Dražůvky, rozcestí",49.039815,17.022695,652,0,U16526N202,2\,,{466634E3-57A9-41F2-9256-7E19D1AB2813}
17.055782,49.0286600000001,650,U16531Z1,Věteřov,49.02866,17.055782,662,0,U16531N201,2\,,{BCF537D1-ADF5-4D72-9674-F831492819A7}
17.078633,49.0214080000001,651,U16620Z1,Sobůlky,49.021408,17.078633,662,0,U16620N200,2\,,{9358FE62-7BB5-45D0-A14A-A7B31BB4AC2E}
17.0807080000001,49.017792,652,U16619Z1,"Sobůlky, ZD",49.017792,17.080708,662,0,U16619N199,2\,,{14AABAC0-2A47-4A8A-88FB-38EB86653967}
16.991855,49.275942,653,U17423Z7,"Vyškov, Autobusové nádraží",49.275942,16.991855,740,0,U17423N203,2\,1,{8322AEEF-1328-4E59-8A67-E5F7C1F7EFED}
16.988643,49.2709820000001,654,U17429Z2,"Vyškov, garáže ČSAD",49.270982,16.988643,740,0,U17429N204,2\,,{E8D2305E-3AFD-4641-B90D-17EECB3A09C3}
16.980263,49.2665230000001,655,U17435Z2,"Vyškov, Nouzka",49.266523,16.980263,740,0,U17435N205,2\,,{AB5AC487-3B74-4A38-A625-27DD5B0D4202}
16.95539,49.2537400000001,656,U17428Z2,"Vyškov, Drnovská Bioveta",49.25374,16.95539,740,0,U17428N206,2\,,{3AD61328-C667-437D-95CE-86C4BC28800F}
16.941783,49.2467720000001,657,U17328Z2,"Luleč, rozcestí",49.246772,16.941783,730,0,U17328N207,2\,,{E3FB4B83-2924-4228-8DE8-E47964B051C0}
16.915262,49.2270530000001,658,U17344Z2,"Tučapy, rozcestí",49.227053,16.915262,730,0,U17344N208,2\,,{300CCE9D-C586-4B65-89CC-B69A3E3DCDAD}
16.9043280000001,49.2196870000001,659,U17311Z4,"Komořany, EDP",49.219687,16.904328,730,0,U17311N209,2\,,{D2CCE1C1-DA4B-4711-B424-FB5CFCFA72D5}
16.892772,49.2075750000001,660,U17331Z2,"Rousínov, Čechyně, rozcestí",49.207575,16.892772,730,0,U17331N210,2\,,{B9587F94-739E-4A10-ACDF-DA65E153D4F7}
16.8847690000001,49.2030740000001,661,U17335Z3,"Rousínov, autobusová stanice",49.203074,16.884769,730,0,U17335N211,2\,1,{A266E045-98C1-4569-8A9B-4E69239B3183}
16.6161510000001,49.185364,662,U1696Z5,ÚAN Zvonařka,49.185364,16.616151,100,0,U1696N32,2\,28,{68452D40-A3C1-4D3A-A395-26BD98C3CB07}
16.8849700000001,49.20291,663,U17335Z2,"Rousínov, autobusová stanice",49.20291,16.88497,730,0,U17335N211,2\,5,{00D15D87-ED9D-4B79-8DC4-487A1F031FE7}
16.8915720000001,49.2070620000001,664,U17331Z1,"Rousínov, Čechyně, rozcestí",49.207062,16.891572,730,0,U17331N210,2\,,{84BF63B9-0EAB-4331-8548-F366B216DFEF}
16.8171600000001,48.8978430000001,665,U15528Z51,"Velké Pavlovice, autobusové nádraží",48.897843,16.81716,555,0,U15528N363,2\,,{B282196F-F935-45F8-A68F-D1A10A94EE6D}
16.9050580000001,49.2200080000001,666,U17311Z3,"Komořany, EDP",49.220008,16.905058,730,0,U17311N209,2\,,{BE9942BA-AE99-41DA-8020-6D253F6B4884}
16.915917,49.2273080000001,667,U17344Z1,"Tučapy, rozcestí",49.227308,16.915917,730,0,U17344N208,2\,,{EBDFCE1E-3631-4461-B09C-1757127852AC}
16.944733,49.248113,668,U17328Z1,"Luleč, rozcestí",49.248113,16.944733,730,0,U17328N207,2\,,{2CA277BF-1E7C-4988-837D-B809189B92BB}
16.9568200000001,49.2543020000001,669,U17428Z1,"Vyškov, Drnovská Bioveta",49.254302,16.95682,740,0,U17428N206,2\,,{40C383D2-5C0C-4DBD-B998-DA24ED63C80F}
16.980512,49.2665270000001,670,U17435Z1,"Vyškov, Nouzka",49.266527,16.980512,740,0,U17435N205,2\,,{0513BB59-05C6-4047-A958-FF98D97EA17F}
16.989108,49.271332,671,U17429Z1,"Vyškov, garáže ČSAD",49.271332,16.989108,740,0,U17429N204,2\,,{BDD84118-A19E-46B0-87FF-66EB95F002E2}
16.992078,49.2758190000001,672,U17423Z21,"Vyškov, Autobusové nádraží",49.275819,16.992078,740,0,U17423N203,2\,,{42A60EE9-9577-4E90-9F69-039E045AB474}
16.885074,49.202819,673,U17335Z6,"Rousínov, autobusová stanice",49.202819,16.885074,730,0,U17335N211,2\,7,{CE9A6200-D084-46C6-ADAB-5C2655210750}
16.917902,49.232287,674,U17343Z1,"Tučapy, obecní úřad",49.232287,16.917902,730,0,U17343N212,2\,,{27D2F052-C344-4A21-9617-B4BB6B7A5FC5}
16.915268,49.246498,675,U17317Z1,Nemojany,49.246498,16.915268,730,0,U17317N213,2\,,{E200D1D8-888A-4CED-8482-9D7A5D429D77}
16.921027,49.250822,676,U17316Z1,"Luleč, rozc. k žel. st.",49.250822,16.921027,730,0,U17316N214,2\,,{836E6283-D448-4082-AABF-E7091BE01C2E}
16.929762,49.253993,677,U17315Z1,"Luleč, obecní úřad",49.253993,16.929762,730,0,U17315N215,2\,,{24BC401D-3480-4B1E-8639-9525C90B595C}
16.937098,49.261913,678,U17314Z1,"Luleč, kamenolom",49.261913,16.937098,730,0,U17314N216,2\,,{35EE1863-1008-408D-8957-2762AAC7DD82}
16.950341,49.270722,679,U17305Z1,"Drnovice, Na vrchu",49.270722,16.950341,730,0,U17305N217,2\,,{F59BEFA9-C291-4F71-BA0D-07130DDF057D}
16.952117,49.2764720000001,680,U17304Z2,Drnovice,49.276472,16.952117,730,0,U17304N218,2\,,{0E2554AE-5FCE-4CBA-8133-AE0B5CC5019E}
16.98279,49.2762420000001,681,U17434Z2,"Vyškov, nemocnice",49.276242,16.98279,740,0,U17434N219,2\,,{6FA86217-46E4-4853-8F6B-3588DA1A1B57}
16.991653,49.275723,682,U17423Z17,"Vyškov, Autobusové nádraží",49.275723,16.991653,740,0,U17423N203,2\,7,{67C8F3B3-146B-47C6-BAB4-A254C95AFD6B}
16.981935,49.2763670000001,683,U17434Z1,"Vyškov, nemocnice",49.276367,16.981935,740,0,U17434N219,2\,,{C9054F49-BFEF-4C48-B7CE-0957338526A6}
16.952048,49.2766250000001,684,U17304Z1,Drnovice,49.276625,16.952048,730,0,U17304N218,2\,,{FD106395-195A-44A5-82FE-99A8FAD209C2}
16.948092,49.2703300000001,685,U17305Z2,"Drnovice, Na vrchu",49.27033,16.948092,730,0,U17305N217,2\,,{6E224409-B7A9-449C-86B8-F78DCAC2FA0B}
16.936918,49.2618600000001,686,U17314Z2,"Luleč, kamenolom",49.26186,16.936918,730,0,U17314N216,2\,,{980DE95C-1586-4AAB-A907-BF45AC79AA9E}
16.929762,49.253993,687,U17315Z2,"Luleč, obecní úřad",49.253993,16.929762,730,0,U17315N215,2\,,{E49337C8-62F8-4EE9-A95D-ECC48C07569F}
16.920762,49.250728,688,U17316Z2,"Luleč, rozc. k žel. st.",49.250728,16.920762,730,0,U17316N214,2\,,{F7097693-E624-4DFF-8213-302823BCF9D2}
16.915287,49.246447,689,U17317Z2,Nemojany,49.246447,16.915287,730,0,U17317N213,2\,,{282A0146-22B3-46EA-9670-3657AF46802D}
16.917902,49.232287,690,U17343Z2,"Tučapy, obecní úřad",49.232287,16.917902,730,0,U17343N212,2\,,{18053C3C-16A4-477E-B181-9543230E54E8}
16.8850150000001,49.203043,691,U17335Z21,"Rousínov, autobusová stanice",49.203043,16.885015,730,0,U17335N211,2\,,{51A1A658-2E96-40D7-BCBB-1BA8F00FB4AB}
16.6161510000001,49.185364,692,U1696Z4,ÚAN Zvonařka,49.185364,16.616151,100,0,U1696N32,2\,30,{B12D11E0-3522-4E49-91F4-A417742D0F0E}
16.6691080000001,49.183143,693,U1068Z3,Černovičky,49.183143,16.669108,101,0,U1068N220,2\,,{6A826DD2-34C0-44DE-9CEA-7590FC25C9D6}
16.690725,49.182195,694,U1577Z5,"Slatina, sídliště",49.182195,16.690725,101,0,U1577N221,2\,,{97BB11F3-111B-43EF-A320-05A3B953ABA8}
16.723572,49.1828820000001,695,U16130Z1,"Šlapanice, Bedřichovice, rozc.",49.182882,16.723572,610,0,U16130N222,2\,,{32E01789-5B3F-406C-AD2D-94E4FE249774}
16.761042,49.183436,696,U16105Z1,"Jiříkovice, motorest Rohlenka",49.183436,16.761042,610,0,U16105N223,2\,,{1ABEDB29-A08C-4F3D-A859-4CBF02E15298}
16.799497,49.184495,697,U16205Z1,"Holubice, kruh",49.184495,16.799497,620,0,U16205N224,2\,,{FB3E84D3-EC4A-40C9-A8E4-E5105C6A470D}
16.8108980000001,49.1881490000001,698,U16227Z1,"Holubice, GLP Park",49.188149,16.810898,620,0,U16227N225,2\,,{BD6EE756-A765-4CD4-899F-1527DCDA893D}
16.8266550000001,49.1850180000001,699,U16210Z1,"Kovalovice, Stará pošta",49.185018,16.826655,620,0,U16210N226,2\,,{A47A3EF9-6B2F-4948-96A0-B8DED1BE5A5B}
16.8388220000001,49.1877480000001,700,U17349Z1,"Velešovice, Za Mlýnem",49.187748,16.838822,730,0,U17349N227,2\,,{B81F45CE-2252-4D1D-8004-E3B95700A9E8}
16.841008,49.1865520000001,701,U17348Z2,"Velešovice, u mostu",49.186552,16.841008,730,0,U17348N228,2\,,{6E00001F-0B92-4AD5-8A2F-3D58B5A21B02}
16.8485030000001,49.180645,702,U17345Z1,Velešovice,49.180645,16.848503,730,0,U17345N229,2\,,{03F340A0-C579-4D70-9A12-CB5454CB5840}
16.8411800000001,49.186447,703,U17348Z1,"Velešovice, u mostu",49.186447,16.84118,730,0,U17348N228,2\,,{A42542C2-49A3-4D09-8BD5-5C9E8FF28B67}
16.816629,48.897773,704,U15528Z4,"Velké Pavlovice, autobusové nádraží",48.897773,16.816629,555,0,U15528N363,2\,4,{F8020A2E-7E7C-4186-BA68-0CA2CEF7FFBD}
16.1364620000001,49.3506410000001,705,U30302Z1,Ořechov,49.350641,16.136462,367,0,U30302N451,2\,,{E4DA5EC2-D718-42AA-B2F4-0C726A279CCE}
16.8182570000001,48.9023050000001,706,U15531Z2,"Velké Pavlovice, obchodní středisko",48.902305,16.818257,555,0,U15531N362,2\,,{5E8E54C4-E6E2-42FD-AB99-A4D6AB0D83B9}
16.8160570000001,48.9364160000001,707,U15514Z2,"Němčičky, rozcestí",48.936416,16.816057,555,0,U15514N361,2\,,{BA61694A-F786-41B9-985D-7A4F63DE58A5}
16.0794450000001,49.3888890000001,708,U30009Z1,Křižanov,49.388889,16.079445,367,0,U30009N452,2\,,{DB923180-B364-4C9F-AE54-2BD6491AD3A0}
16.8187820000001,48.933387,709,U15516Z2,"Němčičky, transformátor",48.933387,16.818782,555,0,U15516N360,2\,,{4FAA7D3F-56D9-4D32-B329-5610580C9CE5}
